CityID,ObsID,year,LastObservation,City,metro_names,Country,continent,region,subregion,state_name,state_abbr,population,longitude,latitude,Walking,Cycling,Motorbykes,Active,Bus,Car,IncomeGroup,DataSource,DataLink,GDPPP 2022
M10001,ID0005,2003,NO,Aachen,Aachen,Germany,Europe,Europe,Western Europe,,,256605,6.083862,50.776351,0.24,0.1,NA,0.34,0.14,0.52,High income,The European Platform on Mobility Management,https://epomm.eu/ ,52745.75571
M10001,ID0004,2017,YES,Aachen,Aachen,Germany,Europe,Europe,Western Europe,,,256605,6.083862,50.776351,0.29703,0.108911,NA,0.40594,0.12871,0.46535,High income,Mobilität in Deutschland − MiD,https://www.aachen.de/de/stadt_buerger/verkehr_strasse/verkehrskonzepte/VEP/Mobilitaetserhebung2017/MiD-Regionalbericht-StadtAachen.pdf,52745.75571
M10002,ID0008,2004,YES,Aarhus,Aarhus,Denmark,Europe,Europe,Northern Europe,,,331000,10.19,56.14,0.072917,0.28125,NA,0.354167,0.197917,0.447917,High income,Urban Audit,https://ec.europa.eu/eurostat/web/gisco/geodata/reference-data/administrative-units-statistical-units/urban-audit,67967.38187
M10003,ID0009,2008,YES,Aberdeen,Aberdeen,United Kingdom,Europe,Europe,Northern Europe,,,211000,-2.095,57.149,0.29703,0.019802,NA,0.31683,0.17822,0.50495,High income,The European Platform on Mobility Management,https://epomm.eu/ ,48866.60396
M10004,C001,2019,YES,Abilene,"Abilene, TX Metro Area",United States,North America,North America,Northern America,Texas,TX,164878,-99.7331439,32.4487364,NA,NA,NA,0.009901,0.0022,0.987899,High income,US CENSUS DATA - Commuting,https://censusreporter.org/ ,81695.18707
M10005,ID0010,2018,YES,Accra,Accra,Ghana,Africa,Sub-Saharan Africa,West Africa,,,4452483,-0.2,5.57,0.49505,0.009901,NA,0.50495,0.15842,0.33663,Lower middle income,Local Governments for Sustainability - ICLEI,https://iclei.org/ ,2238.158021
M10006,ID0011,2011,YES,Addis Ababa,Addis Ababa,Ethiopia,Africa,Sub-Saharan Africa,Eastern Africa,,,3711329,38.75,9.01,NA,NA,NA,0.54,0.31,0.15,Low income,Local Governments for Sustainability - ICLEI,https://iclei.org/ ,1293.778008
M10007,ID0012,2016,YES,Adelaide,Adelaide,Australia,Oceania,East Asia and Pacific,Australia and New Zeland,,,1288681,138.54,-34.95,0.03,0.01,NA,0.04,0.11,0.85,High income,ABS census data 2016 journey to work,https://chartingtransport.com/2017/10/24/trends-in-journey-to-work-mode-shares-in-australian-cities-to-2016/,64711.7656
M10008,C002,2019,YES,Aguadilla-Isabela,"Aguadilla-Isabela, PR Metro Area",United States,North America,North America,Northern America,PuertoRico,PR,327849,-67.0243462,18.5007759,0.031949,0.00213,NA,0.034079,0.001065,0.964856,High income,US CENSUS DATA - Commuting,https://censusreporter.org/ ,81695.18707
M10009,ID0013,2011,YES,Agueda,Agueda,Portugal,Europe,Europe,Southern Europe,,,47729,-8.443,40.575,0.13,0.02,NA,0.15,0.03,0.82,High income,The European Platform on Mobility Management,https://epomm.eu/ ,27275.11155
M10010,ID0014,2011,YES,Ahmedabad,Ahmedabad,India,Asia,South Asia,Southern Asia,,,5600000,72.62,23.03,NA,NA,NA,0.36,0.16,0.48,Lower middle income,Census of India 2011,https://censusindia.gov.in/census.website/,2484.845429
M10011,ID0015,2009,YES,Aix,Aix,France,Europe,Europe,Western Europe,,,317000,5.443,43.527,0.26,0.01,NA,0.27,0.07,0.66,High income,The European Platform on Mobility Management,https://epomm.eu/ ,44460.81785
M10012,C003,2019,YES,Akron,"Akron, OH Metro Area",United States,North America,North America,Northern America,Ohio,OH,695688,-81.5190053,41.0814447,0.018913,0.001182,NA,0.020095,0.010638,0.969267,High income,US CENSUS DATA - Commuting,https://censusreporter.org/ ,81695.18707
M10013,C004,2019,YES,Albany,"Albany, OR Metro Area",United States,North America,North America,Northern America,Oregon,OR,117080,-123.087973,44.639823,0.021814,0.005741,NA,0.027555,0.008037,0.964409,High income,US CENSUS DATA - Commuting,https://censusreporter.org/ ,81695.18707
M10014,C005,2019,YES,Albany,"Albany, GA Metro Area",United States,North America,North America,Northern America,Georgia,GA,154351,-84.15848,31.57032,NA,NA,NA,0.0131,0.007642,0.979258,High income,US CENSUS DATA - Commuting,https://censusreporter.org/ ,81695.18707
M10015,C006,2019,YES,Albany,"Albany-Schenectady-Troy, NY Metro Area",United States,North America,North America,Northern America,New York,NY,866964,-73.7515,42.6517,0.030941,0.002475,NA,0.033416,0.02599,0.940594,High income,US CENSUS DATA - Commuting,https://censusreporter.org/ ,81695.18707
M10016,C007,2019,YES,Albuquerque,"Albuquerque, NM Metro Area",United States,North America,North America,Northern America,New Mexico,NM,887976,-106.6055534,35.0853336,0.018405,0.007362,NA,0.025767,0.006135,0.968098,High income,US CENSUS DATA - Commuting,https://censusreporter.org/ ,81695.18707
M10017,ID0016,2014,YES,Ålesund,Ålesund,Norway,Europe,Europe,Northern Europe,,,45747,6.149,62.471,0.21,0.03,NA,0.24,0.06,0.7,High income,The European Platform on Mobility Management,https://epomm.eu/ ,87961.78061
M10018,C008,2019,YES,Alexandria,"Alexandria, LA Metro Area",United States,North America,North America,Northern America,Louisiana,LA,152783,-92.45763,31.291683,0.011828,0.004301,NA,0.016129,0.016129,0.967742,High income,US CENSUS DATA - Commuting,https://censusreporter.org/ ,81695.18707
M10019,ID0017,2004,YES,Alicante,Alicante,Spain,Europe,Europe,Southern Europe,,,333000,-0.48,38.36,NA,NA,NA,0.18,0.13,0.69,High income,Urban Audit,https://ec.europa.eu/eurostat/web/gisco/geodata/reference-data/administrative-units-statistical-units/urban-audit,32676.98371
M10020,C009,2019,YES,Allentown,"Allentown-Bethlehem-Easton, PA-NJ Metro Area",United States,North America,North America,Northern America,Pennsylvania,PA,817821,-75.4440964,40.6516458,0.02401,0.0012,NA,0.02521,0.010804,0.963986,High income,US CENSUS DATA - Commuting,https://censusreporter.org/ ,81695.18707
M10021,ID0019,2006,NO,Almada,Almada,Portugal,Europe,Europe,Southern Europe,,,174030,-9.157,38.677,0.19,0.01,NA,0.2,0.3,0.5,High income,The European Platform on Mobility Management,https://epomm.eu/ ,27275.11155
M10021,ID0018,2017,YES,Almada,Almada,Portugal,Europe,Europe,Southern Europe,,,174030,-9.157,38.677,0.17,0.01,NA,0.18,0.36,0.46,High income,Local Governments for Sustainability - ICLEI,https://iclei.org/ ,27275.11155
M10022,ID0021,2001,NO,Almere,Almere,Netherlands,Europe,Europe,Western Europe,,,186011,5.242,52.367,0.2,0.32,NA,0.52,0.08,0.4,High income,The European Platform on Mobility Management,https://epomm.eu/ ,62536.73203
M10022,ID0020,2020,YES,Almere,Almere,Netherlands,Europe,Europe,Western Europe,,,186011,5.242,52.367,0.2,0.22,NA,0.42,0.13,0.45,High income,MOBILITEITSVISIE ALMERE 2020-2030,https://ingesprek.almere.nl/fileadmin/user_upload/Almere_Mobiliteitsvisie_2020_-_2030-gecomprimeerd.pdf,62536.73203
M10023,ID0022,2014,YES,Alta,Alta,Norway,Europe,Europe,Northern Europe,,,19822,23.267,69.97,0.17,0.05,NA,0.22,0.04,0.74,High income,The European Platform on Mobility Management,https://epomm.eu/ ,87961.78061
M10024,C010,2019,YES,Altoona,"Altoona, PA Metro Area",United States,North America,North America,Northern America,Pennsylvania,PA,125485,-78.3947359,40.5186809,NA,NA,NA,0.029284,0.004338,0.966377,High income,US CENSUS DATA - Commuting,https://censusreporter.org/ ,81695.18707
M10025,C011,2019,YES,Amarillo,"Amarillo, TX Metro Area",United States,North America,North America,Northern America,Texas,TX,253391,-101.8312969,35.2219971,0.009989,0.00222,NA,0.012209,0.00222,0.985572,High income,US CENSUS DATA - Commuting,https://censusreporter.org/ ,81695.18707
M10026,ID0023,2008,YES,Amersfoort,Amersfoort,Netherlands,Europe,Europe,Western Europe,,,152481,5.39,52.14,0.152542,0.33001,NA,0.48255,0.05384,0.46361,High income,Central Bureau of Statistics - The Netherlands,https://www.cbs.nl/-/media/_excel/2020/46/modal-split-verplaatsingen-gemeente-amersfoort-2018-tm-2019.xlsx,62536.73203
M10027,C012,2019,YES,Ames,"Ames, IA Metro Area",United States,North America,North America,Northern America,Iowa,IA,90975,-93.635305,42.027349,0.07385,0.012107,NA,0.085956,0.026634,0.887409,High income,US CENSUS DATA - Commuting,https://censusreporter.org/ ,81695.18707
M10028,ID0024,2011,YES,Amiens,Amiens,France,Europe,Europe,Western Europe,,,132874,2.31,49.88,0.33,0.02,NA,0.35,0.07,0.58,High income,PLAN DE DÉPLACEMENTS URBAINS. AMIENS MÉTROPOLE. 2013 - 2023,http://piece-jointe-carto.developpement-durable.gouv.fr/DEPT080A/PAC_EN_CONTINU/pdf/PDU_AM.pdf,44460.81785
M10029,ID0027,2008,NO,Amsterdam,Amsterdam,Netherlands,Europe,Europe,Western Europe,,,747093,4.91,52.38,0.2,0.22,NA,0.42,0.2,0.38,High income,Quantifying dimensions of Transportation Diversity: A city-based comparative approach,"Pareekh, P., Mitra, S., Majumdar, B.B.: Quantifying dimensions of Transportation Diversity: A city-based comparative approach. Transportation Research Procedia (25), 3174–3187 (2017)",62536.73203
M10029,ID0026,2011,NO,Amsterdam,Amsterdam,Netherlands,Europe,Europe,Western Europe,,,747093,4.91,52.38,0.256743,0.320679,NA,0.57742,0.14186,0.28072,High income,Dataplatform - The Netherlands,https://ckan.dataplatform.nl/dataset/41161a2c-3e1c-4872-a254-df33b895edfc/resource/51c67e43-8e75-488b-a5ab-323d1424489f/download/mobiliteit-den-haag-2011-2014.pdf,62536.73203
M10029,ID0025,2014,YES,Amsterdam,Amsterdam,Netherlands,Europe,Europe,Western Europe,,,747093,4.91,52.38,0.04,0.4,NA,0.44,0.29,0.27,High income,Urban Audit,https://ec.europa.eu/eurostat/web/gisco/geodata/reference-data/administrative-units-statistical-units/urban-audit,62536.73203
M10030,C013,2019,YES,Anchorage,"Anchorage, AK Metro Area",United States,North America,North America,Northern America,Alaska,AK,386261,-149.9002778,61.2180556,0.027304,0.009101,NA,0.036405,0.013652,0.949943,High income,US CENSUS DATA - Commuting,https://censusreporter.org/ ,81695.18707
M10031,C014,2019,YES,Ann Arbor,"Ann Arbor, MI Metro Area",United States,North America,North America,Northern America,Michigan,MI,347784,-83.7430378,42.2808256,0.06108,0.011364,NA,0.072443,0.035511,0.892045,High income,US CENSUS DATA - Commuting,https://censusreporter.org/ ,81695.18707
M10032,ID0028,2009,YES,Annemasse,Annemasse,France,Europe,Europe,Western Europe,,,35234,6.23,46.19,0.27,0.02,NA,0.29,0.05,0.66,High income,Plan de Déplacements Urbains d’Annemasse Agglo 2014,https://www.annemasse-agglo.fr/sites/default/files/2018-02/DOC-OFFICIEL_PDU_Complet_AnnemasseAgglo_.pdf,44460.81785
M10034,ID0031,2008,NO,Antwerp,Antwerp,Belgium,Europe,Europe,Western Europe,,,483505,4.417,51.211,0.2,0.23,NA,0.43,0.17,0.4,High income,The European Platform on Mobility Management,https://epomm.eu/ ,53475.2935
M10034,ID0030,2010,YES,Antwerp,Antwerp,Belgium,Europe,Europe,Western Europe,,,506000,4.417,51.211,0.2,0.23,NA,0.43,0.16,0.41,High income,The European Platform on Mobility Management,https://epomm.eu/ ,53475.2935
M10035,ID0032,2008,YES,Apeldoorn,Apeldoorn,Netherlands,Europe,Europe,Western Europe,,,155108,5.973,52.217,0.13,0.28,NA,0.41,0.04,0.55,High income,Cycling Academics. Bringing science on cycling to practice and back,http://cyclingacademics.blogspot.com/2013/05/if-cycling-is-not-genetic-what-is-it.html,62536.73203
M10036,C016,2019,YES,Appleton,"Appleton, WI Metro Area",United States,North America,North America,Northern America,Wisconsin,WI,226172,-88.4153847,44.2619309,0.024619,0.010551,NA,0.03517,0.009379,0.955451,High income,US CENSUS DATA - Commuting,https://censusreporter.org/ ,81695.18707
M10037,ID0033,2016,YES,Arnhem,Arnhem,Netherlands,Europe,Europe,Western Europe,,,143582,5.906,51.975,0.130435,0.26087,NA,0.3913,0.15652,0.45217,High income,The European Platform on Mobility Management,https://epomm.eu/ ,62536.73203
M10038,C018,2019,YES,Asheville,"Asheville, NC Metro Area",United States,North America,North America,Northern America,North Carolina,NC,429136,-82.5514869,35.5950581,0.014151,0.001179,NA,0.01533,0.003538,0.981132,High income,US CENSUS DATA - Commuting,https://censusreporter.org/ ,81695.18707
M10039,ID0034,2006,YES,Athens,Athens,Greece,Europe,Europe,Southern Europe,,,3600000,23.726,37.971,0.08,0.02,NA,0.1,0.37,0.53,High income,The European Platform on Mobility Management,https://epomm.eu/ ,22990.01357
M10040,C019,2019,YES,Athens,"Athens-Clarke County, GA Metro Area",United States,North America,North America,Northern America,Georgia,GA,194156,-83.357567,33.9519347,0.02657,0.013285,NA,0.039855,0.004831,0.955314,High income,US CENSUS DATA - Commuting,https://censusreporter.org/ ,81695.18707
M10041,C020,2019,YES,Atlanta,"Atlanta-Sandy Springs-Roswell, GA Metro Area",United States,North America,North America,Northern America,Georgia,GA,5386650,-84.3792807,33.9140274,0.013193,0.001319,NA,0.014512,0.013193,0.972296,High income,US CENSUS DATA - Commuting,https://censusreporter.org/ ,81695.18707
M10042,C021,2019,YES,Atlantic City,"Atlantic City-Hammonton, NJ Metro Area",United States,North America,North America,Northern America,New Jersey,NJ,272863,-74.4229351,39.3642852,0.039503,0.006772,NA,0.046275,0.049661,0.904063,High income,US CENSUS DATA - Commuting,https://censusreporter.org/ ,81695.18707
M10043,ID0035,2018,YES,Auckland,Auckland,New Zealand,Oceania,East Asia and Pacific,Australia and New Zeland,,,1614000,174.85,-36.86,0.050505,0.010101,NA,0.060606,0.121212,0.818182,High income,NZ Census 2018,https://www.stats.govt.nz/2018-census/,48527.82892
M10044,ID0038,2001,NO,Augsburg,Augsburg,Germany,Europe,Europe,Western Europe,,,263646,10.897,48.354,0.24,0.17,NA,0.41,0.18,0.41,High income,The European Platform on Mobility Management,https://epomm.eu/ ,52745.75571
M10044,ID0037,2008,NO,Augsburg,Augsburg,Germany,Europe,Europe,Western Europe,,,267836,10.897,48.354,0.24,0.13,NA,0.37,0.19,0.44,High income,The European Platform on Mobility Management,https://epomm.eu/ ,52745.75571
M10044,ID0036,2018,YES,Augsburg,Augsburg,Germany,Europe,Europe,Western Europe,,,265000,10.897,48.354,0.313313,0.194194,NA,0.50751,0.15516,0.33734,High income,Traffic behavior in Augsburg,https://www.augsburg.de/buergerservice-rathaus/verkehr/verkehrsverhalten,52745.75571
M10045,C023,2019,YES,Augusta-Richmond County,"Augusta-Richmond County, GA-SC Metro Area",United States,North America,North America,Northern America,Georgia,GA,568595,-82.0105148,33.4734978,0.008859,0.001107,NA,0.009967,0.002215,0.987818,High income,US CENSUS DATA - Commuting,https://censusreporter.org/ ,81695.18707
M10046,C024,2019,YES,Austin,"Austin-Round Rock, TX Metro Area",United States,North America,North America,Northern America,Texas,TX,1810894,-97.7436995,30.2711286,0.022091,0.005891,NA,0.027982,0.010309,0.961708,High income,US CENSUS DATA - Commuting,https://censusreporter.org/ ,81695.18707
M10047,ID0039,2008,YES,Aveiro,Aveiro,Portugal,Europe,Europe,Southern Europe,,,78000,-8.634,40.648,0.13,0.08,NA,0.21,0.14,0.65,High income,The European Platform on Mobility Management,https://epomm.eu/ ,27275.11155
M10048,ID0040,2013,YES,Balchik,Balchik,Bulgaria,Europe,Europe,Eastern Europe,,,12755,28.16,43.412,0.287129,0.089109,NA,0.37624,0.15842,0.46535,Upper middle income,The European Platform on Mobility Management,https://epomm.eu/ ,15797.59558
M10049,ID0041,2006,YES,Ballerup,Ballerup,Denmark,Europe,Europe,Northern Europe,,,37000,12.358,55.73,0.19802,0.178218,NA,0.37624,0.09901,0.52475,High income,The European Platform on Mobility Management,https://epomm.eu/ ,67967.38187
M10050,C025,2019,YES,Baltimore,"Baltimore-Columbia-Towson, MD Metro Area",United States,North America,North America,Northern America,Maryland,MD,2721102,-76.6065247,39.4003288,0.026992,0.002571,NA,0.029563,0.033419,0.937018,High income,US CENSUS DATA - Commuting,https://censusreporter.org/ ,81695.18707
M10051,ID0042,2009,YES,Bamberg,Bamberg,Germany,Europe,Europe,Western Europe,,,69827,10.889,49.901,0.23,0.22,NA,0.45,0.12,0.43,High income,The European Platform on Mobility Management,https://epomm.eu/ ,52745.75571
M10052,ID0043,2011,YES,Bangalore,Bangalore,India,Asia,South Asia,Southern Asia,,,8400000,77.59,12.94,NA,NA,NA,0.366667,0.277778,0.355556,Lower middle income,Census of India 2011,https://censusindia.gov.in/census.website/,2484.845429
M10053,C026,2019,YES,Bangor,"Bangor, ME Metro Area",United States,North America,North America,Northern America,Maine,ME,152160,-68.7778138,44.8011821,0.033058,0.004723,NA,0.03778,0.001181,0.961039,High income,US CENSUS DATA - Commuting,https://censusreporter.org/ ,81695.18707
M10054,ID0045,2006,NO,Barcelona,Barcelona,Spain,Europe,Europe,Southern Europe,,,4600000,2.16,41.35,0.464646,0.010101,NA,0.47475,0.18182,0.34343,High income,Quantifying dimensions of Transportation Diversity: A city-based comparative approach,"Pareekh, P., Mitra, S., Majumdar, B.B.: Quantifying dimensions of Transportation Diversity: A city-based comparative approach. Transportation Research Procedia (25), 3174–3187 (2017)",32676.98371
M10054,ID0044,2018,YES,Barcelona,Barcelona,Spain,Europe,Europe,Southern Europe,,,4600000,2.16,41.35,0.3435,0.0228,NA,0.3663,0.3733,0.2604,High income,Urban Audit,https://ec.europa.eu/eurostat/web/gisco/geodata/reference-data/administrative-units-statistical-units/urban-audit,32676.98371
M10055,ID0046,2011,YES,Barcelos,Barcelos,Portugal,Europe,Europe,Southern Europe,,,20493,-8.623,41.528,NA,NA,NA,0.16,0.19,0.65,High income,The European Platform on Mobility Management,https://epomm.eu/ ,27275.11155
M10056,ID0048,2001,NO,Bari,Bari,Italy,Europe,Europe,Southern Europe,,,326201,16.852,41.127,0.27,0.02,NA,0.29,0.13,0.58,High income,The European Platform on Mobility Management,https://epomm.eu/ ,38373.16605
M10056,ID0047,2013,YES,Bari,Bari,Italy,Europe,Europe,Southern Europe,,,322751,16.852,41.127,0.27,0.01,NA,0.28,0.2,0.52,High income,The European Platform on Mobility Management,https://epomm.eu/ ,38373.16605
M10057,C027,2019,YES,Barnstable Town,"Barnstable Town, MA Metro Area",United States,North America,North America,Northern America,Massachusetts,MA,213756,-70.3002024,41.7003208,0.015892,0.003667,NA,0.01956,0.003667,0.976773,High income,US CENSUS DATA - Commuting,https://censusreporter.org/ ,81695.18707
M10058,ID0049,2011,YES,Barreiro,Barreiro,Portugal,Europe,Europe,Southern Europe,,,78764,-9.079,38.659,NA,NA,NA,0.19192,0.35354,0.45455,High income,The European Platform on Mobility Management,https://epomm.eu/ ,27275.11155
M10059,ID0051,2001,NO,Basel,Basel,Switzerland,Europe,Europe,Western Europe,,,166173,7.589,47.555,0.24,0.17,NA,0.41,0.32,0.27,High income,The European Platform on Mobility Management,https://epomm.eu/ ,99994.93802
M10059,ID0050,2015,YES,Basel,Basel,Switzerland,Europe,Europe,Western Europe,,,169464,7.589,47.555,0.333333,0.171717,NA,0.50505,0.27273,0.22222,High income,ELTIS - The Urban Mobility Observatory,https://www.eltis.org/resources/case-studies/finalist-7th-sump-award-basel-switzerland,99994.93802
M10060,C028,2019,YES,Baton Rouge,"Baton Rouge, LA Metro Area",United States,North America,North America,Northern America,Louisiana,LA,804491,-91.1403196,30.4582829,0.006536,0.004357,NA,0.010893,0.007625,0.981481,High income,US CENSUS DATA - Commuting,https://censusreporter.org/ ,81695.18707
M10061,ID0053,2015,YES,Bauska,Bauska,Latvia,Europe,Europe,Northern Europe,,,25613,24.196,56.408,0.25,0.1,NA,0.35,0.25,0.4,High income,The European Platform on Mobility Management,https://epomm.eu/ ,23184.31167
M10062,ID0054,2010,YES,Bayonne,Bayonne,France,Europe,Europe,Western Europe,,,45000,-1.464,43.497,0.27,0.02,NA,0.29,0.08,0.63,High income,The European Platform on Mobility Management,https://epomm.eu/ ,44460.81785
M10063,ID0055,2006,YES,Beaujolais,Beaujolais,France,Europe,Europe,Western Europe,,,13314,4.72,46.11,0.21,0.01,NA,0.22,0.04,0.74,High income,The European Platform on Mobility Management,https://epomm.eu/ ,44460.81785
M10064,C031,2019,YES,Beaumont,"Beaumont-Port Arthur, TX Metro Area",United States,North America,North America,Northern America,Texas,TX,400092,-94.1018461,30.0860459,0.017635,0.002075,NA,0.01971,0.002075,0.978216,High income,US CENSUS DATA - Commuting,https://censusreporter.org/ ,81695.18707
M10065,ID0056,2011,NO,Beijing,Beijing,China,Asia,East Asia and Pacific,Eastern Asia,,,21540000,116.4074,39.9042,0.21,0.32,NA,0.53,0.26,0.21,Upper middle income,Beijing Yearbook 2011,http://nj.tjj.beijing.gov.cn/nj/main/2011-en/index.htm,12614.06099
M10065,ID0666,2018,YES,Beijing,Beijing,China,Asia,East Asia and Pacific,Eastern Asia,,,21540000,116.4074,39.9042,NA,NA,NA,0.41,0.33,0.26,Upper middle income,EF CHINA,https://www.efchina.org/Reports-en/green-mobility-and-carbon-emissions-in-chinese-cities?set_language=en,12614.06099
M10066,C033,2019,YES,Bellingham,"Bellingham, WA Metro Area",United States,North America,North America,Northern America,Washington,WA,202568,-122.4786854,48.7519112,0.038462,0.014423,NA,0.052885,0.009615,0.9375,High income,US CENSUS DATA - Commuting,https://censusreporter.org/ ,81695.18707
M10067,ID0057,2016,YES,Belo Horizonte,Belo Horizonte,Brazil,South America,Latin America and Caribbean,South America,,,2722000,-43.99,-19.92,NA,NA,NA,0.35,0.28,0.37,Upper middle income,Local Governments for Sustainability - ICLEI,https://iclei.org/ ,10043.62392
M10068,C034,2019,YES,Bend-Redmond,"Bend-Redmond, OR Metro Area",United States,North America,North America,Northern America,Oregon,OR,161556,-121.1504051,44.2531845,0.038896,0.012547,NA,0.051443,0.005019,0.943538,High income,US CENSUS DATA - Commuting,https://censusreporter.org/ ,81695.18707
M10069,ID0058,2001,YES,Bergamo,Bergamo,Italy,Europe,Europe,Southern Europe,,,119234,9.669,45.694,0.1,0.06,NA,0.16,0.15,0.69,High income,The European Platform on Mobility Management,https://epomm.eu/ ,38373.16605
M10070,ID0061,2001,NO,Bergen,Bergen,Norway,Europe,Europe,Northern Europe,,,224941,5.321,60.4,0.3,0.03,NA,0.33,0.12,0.55,High income,The European Platform on Mobility Management,https://epomm.eu/ ,87961.78061
M10070,ID0060,2005,NO,Bergen,Bergen,Norway,Europe,Europe,Northern Europe,,,230403,5.321,60.4,0.3,0.03,NA,0.33,0.11,0.56,High income,The European Platform on Mobility Management,https://epomm.eu/ ,87961.78061
M10070,ID0059,2014,YES,Bergen,Bergen,Norway,Europe,Europe,Northern Europe,,,241949,5.321,60.4,0.26,0.03,NA,0.29,0.16,0.55,High income,Change trends in the use of passenger cars on urban trips: car-pooling in Gdynia,https://www.researchgate.net/publication/320762879_CHANGE_TRENDS_IN_THE_USE_OF_PASSENGER_CARS_ON_URBAN_TRIPS_CAR-POOLING_IN_GDYNIA,87961.78061
M10071,ID0063,2008,NO,Berlin,Berlin,Germany,Europe,Europe,Western Europe,,,3500000,13.398,52.517,0.3,0.13,NA,0.43,0.26,0.31,High income,The European Platform on Mobility Management,https://epomm.eu/ ,52745.75571
M10071,ID0062,2018,YES,Berlin,Berlin,Germany,Europe,Europe,Western Europe,,,3500000,13.398,52.517,0.29703,0.178218,NA,0.475248,0.267327,0.257426,High income,Urban Audit,https://ec.europa.eu/eurostat/web/gisco/geodata/reference-data/administrative-units-statistical-units/urban-audit,52745.75571
M10072,ID0065,2010,NO,Bern,Bern,Switzerland,Europe,Europe,Western Europe,,,124381,7.455,46.953,0.39,0.11,NA,0.5,0.28,0.22,High income,Städtische Mobilität im Vergleich,https://www.bern.ch/mediencenter/medienmitteilungen/aktuell_ptk/staedtische-mobilitaet-im-vergleich-in-bern-legen-oev-und-velo-zu,99994.93802
M10072,ID0064,2015,YES,Bern,Bern,Switzerland,Europe,Europe,Western Europe,,,124381,7.455,46.953,0.30303,0.151515,NA,0.45455,0.32323,0.22222,High income,Städtische Mobilität im Vergleich,https://www.bern.ch/mediencenter/medienmitteilungen/aktuell_ptk/staedtische-mobilitaet-im-vergleich-in-bern-legen-oev-und-velo-zu,99994.93802
M10073,ID0066,2008,YES,Bernau bei Berlin,Bernau bei Berlin,Germany,Europe,Europe,Western Europe,,,35859,13.574,52.678,0.25,0.12,NA,0.37,0.11,0.52,High income,The European Platform on Mobility Management,https://epomm.eu/ ,52745.75571
M10074,ID0067,2015,YES,Bernheze,Bernheze,Netherlands,Europe,Europe,Western Europe,,,29888,5.521,51.687,0.17,0.27,NA,0.44,0.04,0.52,High income,The European Platform on Mobility Management,https://epomm.eu/ ,62536.73203
M10075,ID0069,2001,NO,Besanzon,Besançon,France,Europe,Europe,Western Europe,,,115400,6.02,47.276,0.28,0.02,NA,0.3,0.12,0.58,High income,The European Platform on Mobility Management,https://epomm.eu/ ,44460.81785
M10075,ID0068,2004,YES,Besanzon,Besançon,France,Europe,Europe,Western Europe,,,115400,6.02,47.276,0.28,0.01,NA,0.29,0.11,0.6,High income,The European Platform on Mobility Management,https://epomm.eu/ ,44460.81785
M10076,ID0070,2004,YES,Bethune,Bethune,France,Europe,Europe,Western Europe,,,273000,2.64,50.528,0.21,0.02,NA,0.23,0.04,0.73,High income,The European Platform on Mobility Management,https://epomm.eu/ ,44460.81785
M10077,ID0071,2010,YES,Bielefeld,Bielefeld,Germany,Europe,Europe,Western Europe,,,323270,8.537,52.025,0.15,0.15,NA,0.3,0.16,0.54,High income,The European Platform on Mobility Management,https://epomm.eu/ ,52745.75571
M10078,ID0073,2004,NO,Bilbao,Bilbao,Spain,Europe,Europe,Southern Europe,,,353000,-2.936,43.262,NA,NA,NA,0.23,0.34,0.43,High income,Urban Audit,https://ec.europa.eu/eurostat/web/gisco/geodata/reference-data/administrative-units-statistical-units/urban-audit,32676.98371
M10078,ID0072,2018,YES,Bilbao,Bilbao,Spain,Europe,Europe,Southern Europe,,,353000,-2.936,43.262,0.64,0.02,NA,0.66,0.22,0.12,High income,ELTIS - The Urban Mobility Observatory,https://www.eltis.org/discover/news/bilbao-leads-commitment-sustainable-mobility-spain,32676.98371
M10079,C035,2019,YES,Billings,"Billings, MT Metro Area",United States,North America,North America,Northern America,Montana,MT,161068,-108.5006904,45.7832856,0.023438,0.001116,NA,0.024554,0.00558,0.969866,High income,US CENSUS DATA - Commuting,https://censusreporter.org/ ,81695.18707
M10080,C036,2019,YES,Binghamton,"Binghamton, NY Metro Area",United States,North America,North America,Northern America,New York,NY,246797,-75.9179738,42.0986867,0.029647,0.004561,NA,0.034208,0.018244,0.947548,High income,US CENSUS DATA - Commuting,https://censusreporter.org/ ,81695.18707
M10081,ID0074,2001,YES,Birmingham,Birmingham,United Kingdom,Europe,Europe,Northern Europe,,,1085000,-1.89,52.46,0.010753,0.010753,NA,0.021505,0.268817,0.709677,High income,Urban Audit,https://ec.europa.eu/eurostat/web/gisco/geodata/reference-data/administrative-units-statistical-units/urban-audit,48866.60396
M10082,C037,2019,YES,Birmingham,"Birmingham-Hoover, AL Metro Area",United States,North America,North America,Northern America,Alabama,AL,1121608,-86.816107,33.369322,0.012731,0.001157,NA,0.013889,0.002315,0.983796,High income,US CENSUS DATA - Commuting,https://censusreporter.org/ ,81695.18707
M10083,C038,2019,YES,Bismarck,"Bismarck, ND Metro Area",United States,North America,North America,Northern America,North Dakota,ND,119168,-100.7837392,46.8083268,0.026403,0.0033,NA,0.029703,0.0011,0.969197,High income,US CENSUS DATA - Commuting,https://censusreporter.org/ ,81695.18707
M10084,ID0075,2011,YES,Blackburn with Darwen,Blackburn with Darwen,United Kingdom,Europe,Europe,Northern Europe,,,148000,-2.482,53.746,0.2,0.01,NA,0.21,0.09,0.7,High income,The European Platform on Mobility Management,https://epomm.eu/ ,48866.60396
M10085,C039,2019,YES,Blacksburg,"Blacksburg-Christiansburg-Radford, VA Metro Area",United States,North America,North America,Northern America,Virginia,VA,178148,-80.5764477,37.1317924,0.053179,0.004624,NA,0.057803,0.018497,0.923699,High income,US CENSUS DATA - Commuting,https://censusreporter.org/ ,81695.18707
M10086,C040,2019,YES,Bloomington,"Bloomington, IN Metro Area",United States,North America,North America,Northern America,Indiana,IN,160738,-86.5263857,39.165325,0.073406,0.009627,NA,0.083032,0.01444,0.902527,High income,US CENSUS DATA - Commuting,https://censusreporter.org/ ,81695.18707
M10087,C041,2019,YES,Bloomington,"Bloomington, IL Metro Area",United States,North America,North America,Northern America,Illinois,IL,186676,-88.986971,40.472926,0.049544,0.005215,NA,0.054759,0.005215,0.940026,High income,US CENSUS DATA - Commuting,https://censusreporter.org/ ,81695.18707
M10088,C042,2019,YES,Bloomsburg,"Bloomsburg-Berwick, PA Metro Area",United States,North America,North America,Northern America,Pennsylvania,PA,84777,-76.2332676,41.0545292,0.044318,0.001136,NA,0.045455,0.001136,0.953409,High income,US CENSUS DATA - Commuting,https://censusreporter.org/ ,81695.18707
M10089,ID0077,2002,NO,Bochum,Bochum,Germany,Europe,Europe,Western Europe,,,388869,7.221,51.479,0.18,0.06,NA,0.24,0.2,0.56,High income,The European Platform on Mobility Management,https://epomm.eu/ ,52745.75571
M10089,ID0076,2010,YES,Bochum,Bochum,Germany,Europe,Europe,Western Europe,,,374737,7.221,51.479,0.18,0.06,NA,0.24,0.2,0.56,High income,The European Platform on Mobility Management,https://epomm.eu/ ,52745.75571
M10090,ID0078,2014,YES,Bodo,Bodo,Norway,Europe,Europe,Northern Europe,,,49731,14.405,67.277,0.24,0.07,NA,0.31,0.05,0.64,High income,The European Platform on Mobility Management,https://epomm.eu/ ,87961.78061
M10091,ID0080,2008,NO,Bogota,Bogotá,Colombia,South America,Latin America and Caribbean,South America,,,7980000,-74.08,4.64,0.15,0.02,NA,0.17,0.64,0.19,Upper middle income,EOD Bogotá,https://www.simur.gov.co/encuestas-de-movilidad,6979.725135
M10091,ID0081,2015,NO,Bogota,Bogotá,Colombia,South America,Latin America and Caribbean,South America,,,7181000,-74.08,4.64,0.289903,0.044028,NA,0.33393,0.33321,0.33286,Upper middle income,EOD Bogotá,https://www.simur.gov.co/encuestas-de-movilidad,6979.725135
M10091,ID0079,2019,NO,Bogota,Bogotá,Colombia,South America,Latin America and Caribbean,South America,,,7181000,-74.08,4.64,0.238523,0.065868,NA,0.30439,0.36128,0.33433,Upper middle income,EOD Bogotá,https://www.simur.gov.co/encuestas-de-movilidad,6979.725135
M10091,ID0664,2023,YES,Bogota,Bogotá,Colombia,South America,Latin America and Caribbean,South America,,,7181000,-74.08,4.64,0.275245843,0.073015828,0.073073226,0.348261671,0.383255708,0.268482622,Upper middle income,Encuesta de Movilidad Bogotá-Región,https://bogota.gov.co/mi-ciudad/movilidad/encuesta-de-movilidad-bogota-region-transporte-publico-y-viajes-pie,6979.725135
M10092,C043,2019,YES,Boise City,"Boise City, ID Metro Area",United States,North America,North America,Northern America,Idaho,ID,631462,-116.2146068,43.6187102,0.020408,0.014406,NA,0.034814,0.0012,0.963986,High income,US CENSUS DATA - Commuting,https://censusreporter.org/ ,81695.18707
M10093,ID0083,2001,NO,Bologna,Bologna,Italy,Europe,Europe,Southern Europe,,,402073,11.336,44.522,0.148515,0.049505,NA,0.19802,0.18812,0.61386,High income,The European Platform on Mobility Management,https://epomm.eu/ ,38373.16605
M10093,ID0082,2016,YES,Bologna,Bologna,Italy,Europe,Europe,Southern Europe,,,373026,11.336,44.522,0.221551,0.050352,NA,0.2719,0.13092,0.59718,High income,ELTIS - The Urban Mobility Observatory,https://www.eltis.org/sites/default/files/a4_delpiano.pdf,38373.16605
M10094,ID0085,2001,NO,Bolzano,Bolzano,Italy,Europe,Europe,Southern Europe,,,102880,11.339,46.492,0.35,0.18,NA,0.53,0.07,0.4,High income,The European Platform on Mobility Management,https://epomm.eu/ ,38373.16605
M10094,ID0084,2009,YES,Bolzano,Bolzano,Italy,Europe,Europe,Southern Europe,,,104000,11.339,46.492,0.29,0.29,NA,0.58,0.08,0.34,High income,The European Platform on Mobility Management,https://epomm.eu/ ,38373.16605
M10095,ID0088,2008,NO,Bonn,Bonn,Germany,Europe,Europe,Western Europe,,,317949,7.106,50.736,0.28,0.12,NA,0.4,0.14,0.46,High income,The European Platform on Mobility Management,https://epomm.eu/ ,52745.75571
M10095,ID0087,2016,NO,Bonn,Bonn,Germany,Europe,Europe,Western Europe,,,324000,7.106,50.736,0.27,0.16,NA,0.43,0.17,0.4,High income,Bonn - Modal split,https://www.agora-verkehrswende.de/veroeffentlichungen/staedte-in-bewegung/file/pdf/?tx_agorathemen_themenliste%5Babbildung%5D=3563&cHash=b5acc2d3d668a88f32c8aab9f51d428a,52745.75571
M10095,ID0086,2017,YES,Bonn,Bonn,Germany,Europe,Europe,Western Europe,,,324000,7.106,50.736,0.277228,0.148515,NA,0.425743,0.168317,0.405941,High income,Urban Audit,https://ec.europa.eu/eurostat/web/gisco/geodata/reference-data/administrative-units-statistical-units/urban-audit,52745.75571
M10096,ID0089,2009,YES,Bordeaux,Bordeaux,France,Europe,Europe,Western Europe,,,881000,-0.583,44.848,0.21,0.03,NA,0.24,0.09,0.67,High income,The European Platform on Mobility Management,https://epomm.eu/ ,44460.81785
M10097,C044,2019,YES,Boston,"Boston-Cambridge-Newton, MA-NH Metro Area",United States,North America,North America,Northern America,Massachusetts,MA,4600543,-71.1336367,42.3551531,0.057534,0.009589,NA,0.067123,0.076712,0.856164,High income,US CENSUS DATA - Commuting,https://censusreporter.org/ ,81695.18707
M10098,C045,2019,YES,Boulder,"Boulder, CO Metro Area",United States,North America,North America,Northern America,Colorado,CO,302194,-105.2705456,40.0149856,0.048666,0.042386,NA,0.091052,0.017268,0.89168,High income,US CENSUS DATA - Commuting,https://censusreporter.org/ ,81695.18707
M10099,C046,2019,YES,Bowling Green,"Bowling Green, KY Metro Area",United States,North America,North America,Northern America,Kentucky,KY,160300,-86.4808043,36.9685219,NA,NA,NA,0.038627,0.003219,0.958155,High income,US CENSUS DATA - Commuting,https://censusreporter.org/ ,81695.18707
M10100,ID0091,2001,YES,Braga,Braga,Portugal,Europe,Europe,Southern Europe,,,109460,-8.424,41.549,0.3,0.01,NA,0.31,0.17,0.52,High income,The European Platform on Mobility Management,https://epomm.eu/ ,27275.11155
M10101,ID0092,2014,YES,Bratislava,Bratislava,Slovakia,Europe,Europe,Eastern Europe,,,420000,17.1,48.12,0.270791,0.016227,NA,0.287018,0.330629,0.382353,High income,Urban Audit,https://ec.europa.eu/eurostat/web/gisco/geodata/reference-data/administrative-units-statistical-units/urban-audit,24470.23854
M10102,ID0093,2004,YES,Braunschweig,Braunschweig,Germany,Europe,Europe,Western Europe,,,239921,10.52,52.278,0.24,0.15,NA,0.39,0.14,0.47,High income,The European Platform on Mobility Management,https://epomm.eu/ ,52745.75571
M10103,ID0094,2001,YES,Breclav,Breclav,Czechia,Europe,Europe,Eastern Europe,,,25012,16.877,48.8,0.35,0.26,NA,0.61,0.24,0.15,High income,The European Platform on Mobility Management,https://epomm.eu/ ,30427.42347
M10104,ID0095,2013,YES,Breda,Breda,Netherlands,Europe,Europe,Western Europe,,,180053,4.777,51.585,0.15,0.27,NA,0.42,0.05,0.53,High income,The European Platform on Mobility Management,https://epomm.eu/ ,62536.73203
M10105,ID0096,2014,YES,Bregenz,Bregenz,Austria,Europe,Europe,Western Europe,,,28412,9.745,47.504,0.25,0.2,NA,0.45,0.15,0.4,High income,The European Platform on Mobility Management,https://epomm.eu/ ,56505.96828
M10106,ID0099,2008,NO,Bremen,Bremen,Germany,Europe,Europe,Western Europe,,,547735,8.81,53.076,0.21,0.25,NA,0.46,0.14,0.4,High income,The European Platform on Mobility Management,https://epomm.eu/ ,52745.75571
M10106,ID0098,2017,NO,Bremen,Bremen,Germany,Europe,Europe,Western Europe,,,547735,8.81,53.076,0.26,0.21,NA,0.47,0.14,0.39,High income,The European Platform on Mobility Management,https://epomm.eu/ ,52745.75571
M10106,ID0097,2018,YES,Bremen,Bremen,Germany,Europe,Europe,Western Europe,,,547735,8.81,53.076,0.247525,0.247525,NA,0.49505,0.148515,0.356436,High income,Urban Audit,https://ec.europa.eu/eurostat/web/gisco/geodata/reference-data/administrative-units-statistical-units/urban-audit,52745.75571
M10107,C047,2019,YES,Bremerton,"Bremerton-Silverdale, WA Metro Area",United States,North America,North America,Northern America,Washington,WA,250448,-122.6388241,47.5715506,0.065191,0.01107,NA,0.076261,0.04428,0.879459,High income,US CENSUS DATA - Commuting,https://censusreporter.org/ ,81695.18707
M10108,ID0100,2001,YES,Brescia,Brescia,Italy,Europe,Europe,Southern Europe,,,192151,10.216,45.523,0.14,0.04,NA,0.18,0.14,0.68,High income,The European Platform on Mobility Management,https://epomm.eu/ ,38373.16605
M10109,ID0101,2003,YES,Brest,Brest,France,Europe,Europe,Western Europe,,,1900000,-4.486,48.4,0.25,0.01,NA,0.26,0.08,0.66,High income,The European Platform on Mobility Management,https://epomm.eu/ ,44460.81785
M10110,C048,2019,YES,Bridgeport,"Bridgeport-Stamford-Norwalk, CT Metro Area",United States,North America,North America,Northern America,Connecticut,CT,924777,-73.408122,41.1113332,0.03268,0.001307,NA,0.033987,0.056209,0.909804,High income,US CENSUS DATA - Commuting,https://censusreporter.org/ ,81695.18707
M10111,ID0102,2016,YES,Brisbane,Brisbane,Australia,Oceania,East Asia and Pacific,Australia and New Zeland,,,2209000,153.06,-27.51,0.04,0.01,NA,0.05,0.14,0.81,High income,ABS census data 2016 journey to work,https://chartingtransport.com/2017/10/24/trends-in-journey-to-work-mode-shares-in-australian-cities-to-2016/,64711.7656
M10112,ID0104,2011,NO,Bristol,Bristol,United Kingdom,Europe,Europe,Northern Europe,,,432500,-2.588,51.451,0.22,0.09,NA,0.31,0.05,0.64,High income,The European Platform on Mobility Management,https://epomm.eu/ ,48866.60396
M10112,ID0103,2013,YES,Bristol,Bristol,United Kingdom,Europe,Europe,Northern Europe,,,437000,-2.588,51.451,0.21,0.14,NA,0.35,0.16,0.49,High income,The European Platform on Mobility Management,https://epomm.eu/ ,48866.60396
M10113,ID0106,2001,NO,Brno,Brno,Czechia,Europe,Europe,Eastern Europe,,,404345,16.598,49.203,0.2,0.02,NA,0.22,0.63,0.15,High income,The European Platform on Mobility Management,https://epomm.eu/ ,30427.42347
M10113,ID0107,2012,NO,Brno,Brno,Poland,Europe,Europe,Eastern Europe,,,377440,16.598,49.203,0.052083,0.020833,NA,0.072917,0.59375,0.333333,High income,Urban Audit,https://ec.europa.eu/eurostat/web/gisco/geodata/reference-data/administrative-units-statistical-units/urban-audit,22112.86157
M10113,ID0105,2014,YES,Brno,Brno,Czechia,Europe,Europe,Eastern Europe,,,377440,16.598,49.203,0.06,0.02,NA,0.08,0.53,0.39,High income,The European Platform on Mobility Management,https://epomm.eu/ ,30427.42347
M10114,C049,2019,YES,Brownsville,"Brownsville-Harlingen, TX Metro Area",United States,North America,North America,Northern America,Texas,TX,408872,-97.4981698,25.9024289,NA,NA,NA,0.018438,0.002169,0.979393,High income,US CENSUS DATA - Commuting,https://censusreporter.org/ ,81695.18707
M10115,ID0109,2008,NO,Brugge,Brugge,Belgium,Europe,Europe,Western Europe,,,116741,3.228,51.216,0.11,0.25,NA,0.36,0.13,0.51,High income,The European Platform on Mobility Management,https://epomm.eu/ ,53475.2935
M10115,ID0108,2011,YES,Brugge,Brugge,Belgium,Europe,Europe,Western Europe,,,117000,3.228,51.216,0.108911,0.277228,NA,0.38614,0.17822,0.43564,High income,Piling up or Packaging Policies? An Ex-Post Analysis of Modal Shift in Four Cities,https://www.mdpi.com/1996-1073/11/6/1400/htm,53475.2935
M10116,ID0003,2008,NO,Brussels,Brussels,Belgium,Europe,Europe,Western Europe,,,1100000,4.347,50.856,0.03,0.02,NA,0.05,0.48,0.47,High income,The European Platform on Mobility Management,https://epomm.eu/ ,53475.2935
M10116,ID0111,2008,NO,Brussels,Brussels,Belgium,Europe,Europe,Western Europe,,,1100000,4.347,50.856,0.09,0.05,NA,0.14,0.34,0.52,High income,The European Platform on Mobility Management,https://epomm.eu/ ,53475.2935
M10116,ID0110,2010,YES,Brussels,Brussels,Belgium,Europe,Europe,Western Europe,,,1200000,4.347,50.856,0.25,0.03,NA,0.28,0.28,0.44,High income,The European Platform on Mobility Management,https://epomm.eu/ ,53475.2935
M10117,ID0112,2015,YES,Bucharest,Bucharest,Romania,Europe,Europe,Eastern Europe,,,1830000,26.15,44.37,0.31,0.02,NA,0.33,0.27,0.4,Upper middle income,"Past, Present and Future Mobility challenges and opportunities in Bucharest",https://www.researchgate.net/publication/329168365_Past_Present_and_Future_Mobility_challenges_and_opportunities_in_Bucharest,18419.41871
M10118,ID0114,2011,NO,Budapest,Budapest,Hungary,Europe,Europe,Eastern Europe,,,1700000,19.0476,47.501,0.32,0.01,NA,0.33,0.47,0.2,High income,The European Platform on Mobility Management,https://epomm.eu/ ,22147.20973
M10118,ID0113,2014,YES,Budapest,Budapest,Hungary,Europe,Europe,Eastern Europe,,,1700000,19.092,47.484,0.18,0.02,NA,0.2,0.45,0.35,High income,The European Platform on Mobility Management,https://epomm.eu/ ,22147.20973
M10119,ID0115,2010,NO,Buenos Aires,Buenos Aires,Argentina,South America,Latin America and Caribbean,South America,,,15370000,-58.54,-34.62,0.24,0.03,NA,0.27,0.49,0.24,Upper middle income,Local Governments for Sustainability - ICLEI,https://iclei.org/ ,13730.51471
M10119,ID0658,2019,NO,Buenos Aires,Buenos Aires,Argentina,South America,Latin America and Caribbean,South America,,,15370000,-58.54,-34.62,0.244,0.054,0.033,0.298,0.347,0.355,Upper middle income,Informes de movilidad - Buenos Aires,https://buenosaires.gob.ar/infraestructura/movilidad/informes-de-movilidad,13730.51471
M10119,ID0659,2020,NO,Buenos Aires,Buenos Aires,Argentina,South America,Latin America and Caribbean,South America,,,15370000,-58.54,-34.62,0.249,0.11,0.043,0.359,0.192,0.449,Upper middle income,Informes de movilidad - Buenos Aires,https://buenosaires.gob.ar/infraestructura/movilidad/informes-de-movilidad,13730.51471
M10119,ID0660,2021,NO,Buenos Aires,Buenos Aires,Argentina,South America,Latin America and Caribbean,South America,,,15370000,-58.54,-34.62,0.248,0.071,0.039,0.319,0.276,0.405,Upper middle income,Informes de movilidad - Buenos Aires,https://buenosaires.gob.ar/infraestructura/movilidad/informes-de-movilidad,13730.51471
M10119,ID0661,2022,NO,Buenos Aires,Buenos Aires,Argentina,South America,Latin America and Caribbean,South America,,,15370000,-58.54,-34.62,0.246,0.054,0.037,0.3,0.322,0.378,Upper middle income,Informes de movilidad - Buenos Aires,https://buenosaires.gob.ar/infraestructura/movilidad/informes-de-movilidad,13730.51471
M10119,ID0662,2023,YES,Buenos Aires,Buenos Aires,Argentina,South America,Latin America and Caribbean,South America,,,15370000,-58.54,-34.62,0.246,0.048,0.04,0.294,0.312,0.394,Upper middle income,Informes de movilidad - Buenos Aires,https://buenosaires.gob.ar/infraestructura/movilidad/informes-de-movilidad,13730.51471
M10120,C051,2019,YES,Buffalo,"Buffalo-Cheektowaga-Niagara Falls, NY Metro Area",United States,North America,North America,Northern America,New York,NY,1123794,-78.8224221,43.0054423,0.024533,0.003505,NA,0.028037,0.029206,0.942757,High income,US CENSUS DATA - Commuting,https://censusreporter.org/ ,81695.18707
M10121,ID0117,2011,NO,Burgas,Burgas,Bulgaria,Europe,Europe,Eastern Europe,,,190830,27.469,42.493,0.22,0.08,NA,0.3,0.34,0.36,Upper middle income,The European Platform on Mobility Management,https://epomm.eu/ ,15797.59558
M10121,ID0116,2016,YES,Burgas,Burgas,Bulgaria,Europe,Europe,Eastern Europe,,,190830,27.469,42.493,0.02,0.03,NA,0.05,0.37,0.58,Upper middle income,Local Governments for Sustainability - ICLEI,https://iclei.org/ ,15797.59558
M10122,ID0118,2010,YES,Burgos,Burgos,Spain,Europe,Europe,Southern Europe,,,178500,-3.694,42.345,0.45,0.04,NA,0.49,0.23,0.28,High income,The European Platform on Mobility Management,https://epomm.eu/ ,32676.98371
M10123,C053,2019,YES,Burlington,"Burlington-South Burlington, VT Metro Area",United States,North America,North America,Northern America,Vermont,VT,211635,-73.1709604,44.4669941,0.068511,0.011858,NA,0.080369,0.01054,0.909091,High income,US CENSUS DATA - Commuting,https://censusreporter.org/ ,81695.18707
M10124,ID0119,2001,YES,Cagliari,Cagliari,Italy,Europe,Europe,Southern Europe,,,171538,9.114,39.229,NA,NA,NA,0.2,0.14,0.66,High income,The European Platform on Mobility Management,https://epomm.eu/ ,38373.16605
M10125,ID0120,2016,YES,Calgary,Calgary,Canada,North America,North America,Northern America,,,1483000,-114.06,51.09,0.047,0.015,NA,0.062,0.144,0.794,High income,Census Profile Canada,https://www12.statcan.gc.ca/census-recensement/2016/dp-pd/prof/index.cfm,53371.69743
M10126,C054,2019,YES,California,"California-Lexington Park, MD Metro Area",United States,North America,North America,Northern America,Maryland,MD,107236,-76.5074542,38.3004029,0.021438,0.005044,NA,0.026482,0.006305,0.967213,High income,US CENSUS DATA - Commuting,https://censusreporter.org/ ,81695.18707
M10127,ID0121,2016,YES,Canberra,Canberra,Australia,Oceania,East Asia and Pacific,Australia and New Zeland,,,424000,149.15,-35.32,0.049505,0.029703,NA,0.079208,0.079208,0.841584,High income,ABS census data 2016 journey to work,https://chartingtransport.com/2017/10/24/trends-in-journey-to-work-mode-shares-in-australian-cities-to-2016/,64711.7656
M10128,C055,2019,YES,Canton-Massillon,"Canton-Massillon, OH Metro Area",United States,North America,North America,Northern America,Ohio,OH,399052,-81.5215093,40.7967244,0.016018,0.001144,NA,0.017162,0.004577,0.978261,High income,US CENSUS DATA - Commuting,https://censusreporter.org/ ,81695.18707
M10129,C056,2019,YES,Cape Coral,"Cape Coral-Fort Myers, FL Metro Area",United States,North America,North America,Northern America,Florida,FL,641513,-81.9534815,26.6630286,0.014168,0.004723,NA,0.01889,0.003542,0.977568,High income,US CENSUS DATA - Commuting,https://censusreporter.org/ ,81695.18707
M10130,ID0750,2013,NO,Cape Town,Cape Town,South Africa,Africa,Sub-Saharan Africa,Southern Africa,,,3661684,18.49,-33.95,NA,NA,NA,0.09,0.26,0.65,Upper middle income,"City of Cape Town, Comprehensive Integrated Transport Plan",https://resource.capetown.gov.za/documentcentre/Documents/City%20strategies%2C%20plans%20and%20frameworks/CITP_2023-2028.pdf,6253.161613
M10130,ID0122,2016,NO,Cape Town,Cape Town,South Africa,Africa,Sub-Saharan Africa,Southern Africa,,,3661684,18.49,-33.95,0.08,0.01,NA,0.09,0.26,0.65,Upper middle income,Local Governments for Sustainability - ICLEI,https://iclei.org/ ,6253.161613
M10130,ID0751,2018,NO,Cape Town,Cape Town,South Africa,Africa,Sub-Saharan Africa,Southern Africa,,,3661684,18.49,-33.95,NA,NA,NA,0.02,0.26,0.72,Upper middle income,"City of Cape Town, Comprehensive Integrated Transport Plan",https://resource.capetown.gov.za/documentcentre/Documents/City%20strategies%2C%20plans%20and%20frameworks/CITP_2023-2028.pdf,6253.161613
M10130,ID0752,2020,YES,Cape Town,Cape Town,South Africa,Africa,Sub-Saharan Africa,Southern Africa,,,3661684,18.49,-33.95,NA,NA,NA,0.04,0.14,0.82,Upper middle income,"City of Cape Town, Comprehensive Integrated Transport Plan",https://resource.capetown.gov.za/documentcentre/Documents/City%20strategies%2C%20plans%20and%20frameworks/CITP_2023-2028.pdf,6253.161613
M10131,C058,2019,YES,Carbondale,"Carbondale-Marion, IL Metro Area",United States,North America,North America,Northern America,Illinois,IL,125713,-89.2542325,37.7376501,NA,NA,NA,0.032503,0.009751,0.957746,High income,US CENSUS DATA - Commuting,https://censusreporter.org/ ,81695.18707
M10132,C059,2019,YES,Carson City,"Carson City, NV Metro Area",United States,North America,North America,Northern America,Nevada,NV,54161,-119.7674034,39.1637984,NA,NA,NA,0.027233,0.045752,0.927015,High income,US CENSUS DATA - Commuting,https://censusreporter.org/ ,81695.18707
M10133,C060,2019,YES,Casper,"Casper, WY Metro Area",United States,North America,North America,Northern America,Wyoming,WY,77875,-106.313081,42.866632,NA,NA,NA,0.019417,0.011866,0.968716,High income,US CENSUS DATA - Commuting,https://censusreporter.org/ ,81695.18707
M10134,ID0123,2001,YES,Catania,Catania,Italy,Europe,Europe,Southern Europe,,,320974,15.078,37.5,NA,NA,NA,0.23232,0.13131,0.63636,High income,The European Platform on Mobility Management,https://epomm.eu/ ,38373.16605
M10135,C061,2019,YES,Cedar Rapids,"Cedar Rapids, IA Metro Area",United States,North America,North America,Northern America,Iowa,IA,258198,-91.6656232,41.9778795,NA,NA,NA,0.020757,0.008547,0.970696,High income,US CENSUS DATA - Commuting,https://censusreporter.org/ ,81695.18707
M10136,C062,2019,YES,Chambersburg,"Chambersburg-Waynesboro, PA Metro Area",United States,North America,North America,Northern America,Pennsylvania,PA,149754,-77.646251,39.9342881,0.018785,0.00663,NA,0.025414,0.001105,0.973481,High income,US CENSUS DATA - Commuting,https://censusreporter.org/ ,81695.18707
M10137,ID0124,2006,YES,Chambery,Chambéry,France,Europe,Europe,Western Europe,,,117000,5.919,45.57,0.28,0.02,NA,0.3,0.06,0.64,High income,The European Platform on Mobility Management,https://epomm.eu/ ,44460.81785
M10138,C063,2019,YES,Champaign-Urbana,"Champaign-Urbana, IL Metro Area",United States,North America,North America,Northern America,Illinois,IL,232311,-88.2433829,40.1164204,0.083636,0.007273,NA,0.090909,0.038788,0.870303,High income,US CENSUS DATA - Commuting,https://censusreporter.org/ ,81695.18707
M10139,ID0125,2012,YES,Changwon,Changwon,South Korea,Asia,East Asia and Pacific,Eastern Asia,,,1070000,128.63,35.21,0.113767,0.095602,NA,0.20937,0.3021,0.48853,High income,Local Governments for Sustainability - ICLEI,https://iclei.org/ ,33121.37129
M10140,ID0126,2008,YES,Charleroi,Charleroi,Belgium,Europe,Europe,Western Europe,,,202598,4.444,50.412,0.03,0.01,NA,0.04,0.12,0.84,High income,The European Platform on Mobility Management,https://epomm.eu/ ,53475.2935
M10141,C064,2019,YES,Charleston,"Charleston, WV Metro Area",United States,North America,North America,Northern America,West Virginia,WV,223113,-81.642173,38.343967,0.033333,0.001111,NA,0.034444,0.01,0.955556,High income,US CENSUS DATA - Commuting,https://censusreporter.org/ ,81695.18707
M10142,C065,2019,YES,Charleston,"Charleston-North Charleston, SC Metro Area",United States,North America,North America,Northern America,South Carolina,SC,689205,-79.9748103,32.8546197,0.0179,0.009547,NA,0.027446,0.00358,0.968974,High income,US CENSUS DATA - Commuting,https://censusreporter.org/ ,81695.18707
M10143,C066,2019,YES,Charlotte,"Charlotte-Concord-Gastonia, NC-SC Metro Area",United States,North America,North America,Northern America,North Carolina,NC,2270473,-80.817935,35.3328119,0.014686,0.001335,NA,0.016021,0.009346,0.974633,High income,US CENSUS DATA - Commuting,https://censusreporter.org/ ,81695.18707
M10144,C067,2019,YES,Charlottesville,"Charlottesville, VA Metro Area",United States,North America,North America,Northern America,Virginia,VA,220824,-78.4766781,38.0293059,0.054475,0.009079,NA,0.063554,0.018158,0.918288,High income,US CENSUS DATA - Commuting,https://censusreporter.org/ ,81695.18707
M10145,C068,2019,YES,Chattanooga,"Chattanooga, TN-GA Metro Area",United States,North America,North America,Northern America,Tennessee,TN,531445,-85.3096801,35.0456297,0.016336,0.001167,NA,0.017503,0.003501,0.978997,High income,US CENSUS DATA - Commuting,https://censusreporter.org/ ,81695.18707
M10146,ID0128,2001,NO,Chemnitz,Chemnitz,Germany,Europe,Europe,Western Europe,,,243089,12.922,50.834,0.3,0.06,NA,0.36,0.14,0.5,High income,The European Platform on Mobility Management,https://epomm.eu/ ,52745.75571
M10146,ID0127,2008,YES,Chemnitz,Chemnitz,Germany,Europe,Europe,Western Europe,,,249500,12.922,50.834,0.26,0.06,NA,0.32,0.14,0.54,High income,The European Platform on Mobility Management,https://epomm.eu/ ,52745.75571
M10147,ID0130,2010,NO,Chennai,Chennai,India,Asia,South Asia,Southern Asia,,,4646732,80.270186,13.0836939,0.22,0.09,NA,0.31,0.31,0.38,Lower middle income,Local Governments for Sustainability - ICLEI,https://iclei.org/ ,2484.845429
M10147,ID0129,2018,YES,Chennai,Chennai,India,Asia,South Asia,Southern Asia,,,4646732,80.270186,13.0836939,0.22,0.09,NA,0.31,0.31,0.38,Lower middle income,Local Governments for Sustainability - ICLEI,https://iclei.org/ ,2484.845429
M10148,C070,2019,YES,Chicago,"Chicago-Naperville-Elgin, IL-IN-WI Metro Area",United States,North America,North America,Northern America,Illinois,IL,9402769,-87.6244212,41.8755616,0.034395,0.007643,NA,0.042038,0.061147,0.896815,High income,US CENSUS DATA - Commuting,https://censusreporter.org/ ,81695.18707
M10149,C071,2019,YES,Chico,"Chico, CA Metro Area",United States,North America,North America,Northern America,California,CA,219308,-121.8374777,39.7284944,0.0252,0.013746,NA,0.038946,0.002291,0.958763,High income,US CENSUS DATA - Commuting,https://censusreporter.org/ ,81695.18707
M10150,ID0131,2018,YES,Christchurch,Christchurch,New Zealand,Oceania,East Asia and Pacific,Australia and New Zeland,,,374000,172.62,-43.51,0.040404,0.060606,NA,0.10101,0.050505,0.848485,High income,NZ Census 2018,https://www.stats.govt.nz/2018-census/,48527.82892
M10151,C072,2019,YES,Cincinnati,"Cincinnati, OH-KY-IN Metro Area",United States,North America,North America,Northern America,Ohio,OH,2105491,-84.5120196,39.1031182,0.020507,0.002413,NA,0.022919,0.010856,0.966224,High income,US CENSUS DATA - Commuting,https://censusreporter.org/ ,81695.18707
M10152,C073,2019,YES,Clarksville,"Clarksville, TN-KY Metro Area",United States,North America,North America,Northern America,Tennessee,TN,266343,-87.3594528,36.5297706,0.032538,0.006508,NA,0.039046,0.003254,0.957701,High income,US CENSUS DATA - Commuting,https://censusreporter.org/ ,81695.18707
M10153,ID0132,2003,YES,Clermont-Ferrand,Clermont-Ferrand,France,Europe,Europe,Western Europe,,,344000,3.087,45.782,0.27,0.01,NA,0.28,0.07,0.65,High income,The European Platform on Mobility Management,https://epomm.eu/ ,44460.81785
M10154,C074,2019,YES,Cleveland,"Cleveland, TN Metro Area",United States,North America,North America,Northern America,Tennessee,TN,116519,-84.875314,35.177734,0.02515,0.002395,NA,0.027545,0.016766,0.955689,High income,US CENSUS DATA - Commuting,https://censusreporter.org/ ,81695.18707
M10155,C075,2019,YES,Cleveland,"Cleveland-Elyria, OH Metro Area",United States,North America,North America,Northern America,Ohio,OH,2046514,-81.6936772,41.4996574,0.02515,0.002395,NA,0.027545,0.016766,0.955689,High income,US CENSUS DATA - Commuting,https://censusreporter.org/ ,81695.18707
M10156,C076,2019,YES,Coeur d'Alene,"Coeur d'Alene, ID Metro Area",United States,North America,North America,Northern America,Idaho,ID,140625,-116.7804664,47.6776832,0.006944,0.00463,NA,0.011574,0.012731,0.975694,High income,US CENSUS DATA - Commuting,https://censusreporter.org/ ,81695.18707
M10157,ID0133,2006,YES,Coimbra,Coimbra,Portugal,Europe,Europe,Southern Europe,,,140000,-8.419,40.198,0.12,0.01,NA,0.13,0.18,0.69,High income,The European Platform on Mobility Management,https://epomm.eu/ ,27275.11155
M10158,C077,2019,YES,College Station-Bryan,"College Station-Bryan, TX Metro Area",United States,North America,North America,Northern America,Texas,TX,232224,-96.321387,30.636684,0.019231,0.010181,NA,0.029412,0.012443,0.958145,High income,US CENSUS DATA - Commuting,https://censusreporter.org/ ,81695.18707
M10159,ID0007,1999,NO,Cologne,Cologne,Germany,Europe,Europe,Western Europe,,,1000000,6.959,50.939,0.262626,0.121212,NA,0.38384,0.19192,0.42424,High income,The effect of Public Transport Investment on car ownership,https://www.researchgate.net/publication/317937028_The_Effect_of_Public_Transport_Investment_on_Car_Ownership,52745.75571
M10159,ID0135,2006,NO,Cologne,Cologne,Germany,Europe,Europe,Western Europe,,,989766,6.959,50.939,0.24,0.12,NA,0.36,0.21,0.43,High income,The European Platform on Mobility Management,https://epomm.eu/ ,52745.75571
M10159,ID0134,2017,YES,Cologne,Cologne,Germany,Europe,Europe,Western Europe,,,1060000,6.959,50.939,0.25,0.19,NA,0.44,0.21,0.35,High income,Urban Audit,https://ec.europa.eu/eurostat/web/gisco/geodata/reference-data/administrative-units-statistical-units/urban-audit,52745.75571
M10160,C078,2019,YES,Colorado Springs,"Colorado Springs, CO Metro Area",United States,North America,North America,Northern America,Colorado,CO,660034,-104.8213634,38.8338816,0.041463,0.002439,NA,0.043902,0.002439,0.953659,High income,US CENSUS DATA - Commuting,https://censusreporter.org/ ,81695.18707
M10161,C079,2019,YES,Columbia,"Columbia, MO Metro Area",United States,North America,North America,Northern America,Missouri,MO,165814,-92.3340724,38.9517053,0.041758,0.003297,NA,0.045055,0.007692,0.947253,High income,US CENSUS DATA - Commuting,https://censusreporter.org/ ,81695.18707
M10162,C080,2019,YES,Columbia,"Columbia, SC Metro Area",United States,North America,North America,Northern America,South Carolina,SC,776019,-81.034986,33.995985,0.041573,0.001124,NA,0.042697,0.004494,0.952809,High income,US CENSUS DATA - Commuting,https://censusreporter.org/ ,81695.18707
M10163,C082,2019,YES,Columbus,"Columbus, GA-AL Metro Area",United States,North America,North America,Northern America,Georgia,GA,304016,-84.982139,32.465663,NA,NA,NA,0.024609,0.005593,0.969799,High income,US CENSUS DATA - Commuting,https://censusreporter.org/ ,81695.18707
M10164,C083,2019,YES,Columbus,"Columbus, OH Metro Area",United States,North America,North America,Northern America,Ohio,OH,1923605,-82.9987942,39.9611755,0.019506,0.003901,NA,0.023407,0.011704,0.964889,High income,US CENSUS DATA - Commuting,https://censusreporter.org/ ,81695.18707
M10165,ID0138,2010,NO,Copenhagen,Copenhagen,Denmark,Europe,Europe,Northern Europe,,,548443,12.5856,55.6798,0.25,0.31,NA,0.56,0.15,0.29,High income,The European Platform on Mobility Management,https://epomm.eu/ ,67967.38187
M10165,ID0137,2012,NO,Copenhagen,Copenhagen,Denmark,Europe,Europe,Northern Europe,,,559000,12.5856,55.6798,0.2,0.26,NA,0.46,0.21,0.33,High income,The European Platform on Mobility Management,https://epomm.eu/ ,67967.38187
M10165,ID0136,2014,YES,Copenhagen,Copenhagen,Denmark,Europe,Europe,Northern Europe,,,591000,12.5856,55.6798,0.17,0.3,NA,0.47,0.2,0.33,High income,The European Platform on Mobility Management,https://epomm.eu/ ,67967.38187
M10166,ID0140,2004,NO,Cordoba,Córdoba,Spain,Europe,Europe,Southern Europe,,,330000,-4.777,37.885,0.18,0.01,NA,0.19,0.1,0.71,High income,Urban Audit,https://ec.europa.eu/eurostat/web/gisco/geodata/reference-data/administrative-units-statistical-units/urban-audit,32676.98371
M10166,ID0139,2010,YES,Cordoba,Córdoba,Spain,Europe,Europe,Southern Europe,,,330000,-4.777,37.885,0.43,0.02,NA,0.45,0.1,0.45,High income,The European Platform on Mobility Management,https://epomm.eu/ ,32676.98371
M10167,ID0141,2011,YES,Cork,Cork,Ireland,Europe,Europe,Northern Europe,,,198582,-8.472,51.895,0.15,0.02,NA,0.17,0.07,0.76,High income,The European Platform on Mobility Management,https://epomm.eu/ ,103684.8808
M10168,C084,2019,YES,Corpus Christi,"Corpus Christi, TX Metro Area",United States,North America,North America,Northern America,Texas,TX,431694,-97.396381,27.8005828,0.012752,0.002125,NA,0.014878,0.008502,0.976621,High income,US CENSUS DATA - Commuting,https://censusreporter.org/ ,81695.18707
M10169,C085,2019,YES,Corvallis,"Corvallis, OR Metro Area",United States,North America,North America,Northern America,Oregon,OR,85323,-123.2620435,44.5645659,0.082759,0.031724,NA,0.114483,0.02069,0.864828,High income,US CENSUS DATA - Commuting,https://censusreporter.org/ ,81695.18707
M10170,ID0142,2008,YES,Coswig/Radebeul,Coswig/Radebeul,Germany,Europe,Europe,Western Europe,,,55357,13.568,51.132,0.22,0.22,NA,0.44,0.07,0.49,High income,The European Platform on Mobility Management,https://epomm.eu/ ,52745.75571
M10171,ID0143,2001,YES,Cottbus,Cottbus,Germany,Europe,Europe,Western Europe,,,101671,14.328,51.751,0.25,0.22,NA,0.47,0.12,0.41,High income,The European Platform on Mobility Management,https://epomm.eu/ ,52745.75571
M10172,C086,2019,YES,Crestview,"Crestview-Fort Walton Beach-Destin, FL Metro Area",United States,North America,North America,Northern America,Florida,FL,243654,-86.567622,30.736436,0.023891,0.004551,NA,0.028441,0.002275,0.969283,High income,US CENSUS DATA - Commuting,https://censusreporter.org/ ,81695.18707
M10173,C087,2019,YES,Cumberland,"Cumberland, MD-WV Metro Area",United States,North America,North America,Northern America,Maryland,MD,100942,-78.7625185,39.6528654,0.023128,0.001101,NA,0.024229,0.0001,0.975771,High income,US CENSUS DATA - Commuting,https://censusreporter.org/ ,81695.18707
M10174,ID0144,2016,YES,Curitiba,Curitiba,Brazil,South America,Latin America and Caribbean,South America,,,1982000,-49.27,-25.45,0.2,0.05,NA,0.25,0.45,0.3,Upper middle income,Local Governments for Sustainability - ICLEI,https://iclei.org/ ,10043.62392
M10175,ID0145,2012,YES,Daejeon,Daejeon,South Korea,Asia,East Asia and Pacific,Eastern Asia,,,1533000,127.39,36.36,0.26,0.02,NA,0.28,0.28,0.44,High income,Korea National Transportation DB Report 2013,https://www.ktdb.go.kr/common/downloadFile.do?fileNm=/publication_TransportDB.pdf&dnFileNm=Korea%20Transport%20Database%20and%20Investment%20Strategies.pdf,33121.37129
M10176,C088,2019,YES,Dallas,"Dallas-Fort Worth-Arlington, TX Metro Area",United States,North America,North America,Northern America,Texas,TX,6613589,-96.7968559,32.7762719,0.013871,0.001261,NA,0.015132,0.007566,0.977301,High income,US CENSUS DATA - Commuting,https://censusreporter.org/ ,81695.18707
M10177,ID0147,2010,NO,Dar Es Salaam,Dar Es Salaam,Tanzania,Africa,Sub-Saharan Africa,Eastern Africa,,,5325879,39.21,-6.83,NA,NA,NA,0.45,0.43,0.12,Lower middle income,Local Governments for Sustainability - ICLEI,https://iclei.org/ ,1211.058594
M10177,ID0146,2018,YES,Dar Es Salaam,Dar Es Salaam,Tanzania,Africa,Sub-Saharan Africa,Eastern Africa,,,5325879,39.21,-6.83,NA,NA,NA,0.45,0.43,0.12,Lower middle income,Local Governments for Sustainability - ICLEI,https://iclei.org/ ,1211.058594
M10178,ID0148,2016,YES,Darmstadt,Darmstadt,Germany,Europe,Europe,Western Europe,,,145000,8.649,49.879,0.29,0.17,NA,0.46,0.15,0.39,High income,Darmstadt - Modal split,https://www.agora-verkehrswende.de/veroeffentlichungen/staedte-in-bewegung/file/pdf/?tx_agorathemen_themenliste%5Babbildung%5D=3566&cHash=7b20b7278cd2efa1db4dcec0ca144813,52745.75571
M10179,ID0149,2015,YES,Daugavpils,Daugavpils,Latvia,Europe,Europe,Northern Europe,,,96028,26.537,55.889,0.2,0.05,NA,0.25,0.35,0.4,High income,The European Platform on Mobility Management,https://epomm.eu/ ,23184.31167
M10180,C092,2019,YES,Davenport,"Davenport-Moline-Rock Island, IA-IL Metro Area",United States,North America,North America,Northern America,Iowa,IA,376779,-90.615979,41.593589,0.023359,0.001112,NA,0.024472,0.005562,0.969967,High income,US CENSUS DATA - Commuting,https://censusreporter.org/ ,81695.18707
M10181,C093,2019,YES,Dayton,"Dayton, OH Metro Area",United States,North America,North America,Northern America,Ohio,OH,792415,-84.1916069,39.7589478,0.018605,0.002326,NA,0.02093,0.010465,0.968605,High income,US CENSUS DATA - Commuting,https://censusreporter.org/ ,81695.18707
M10182,C094,2019,YES,Decatur,"Decatur, IL Metro Area",United States,North America,North America,Northern America,Illinois,IL,108393,-88.946927,39.852163,0.01989,0.005525,NA,0.025414,0.009945,0.964641,High income,US CENSUS DATA - Commuting,https://censusreporter.org/ ,81695.18707
M10183,C095,2019,YES,Decatur,"Decatur, AL Metro Area",United States,North America,North America,Northern America,Alabama,AL,151768,-86.998774,34.562212,0.01989,0.005525,NA,0.025414,0.009945,0.964641,High income,US CENSUS DATA - Commuting,https://censusreporter.org/ ,81695.18707
M10184,ID0150,2011,YES,Delhi,Delhi,India,Asia,South Asia,Southern Asia,,,28514000,77.29,28.63,0.21,0.12,NA,0.33,0.48,0.19,Lower middle income,Census of India 2011,https://censusindia.gov.in/census.website/,2484.845429
M10185,C096,2019,YES,Deltona,"Deltona-Daytona Beach-Ormond Beach, FL Metro Area",United States,North America,North America,Northern America,Florida,FL,592455,-81.2518833,29.0396219,0.011919,0.005959,NA,0.017878,0.003576,0.978546,High income,US CENSUS DATA - Commuting,https://censusreporter.org/ ,81695.18707
M10186,C097,2019,YES,Denver,"Denver-Aurora-Lakewood, CO Metro Area",United States,North America,North America,Northern America,Colorado,CO,2617172,-104.959491,39.72677,0.022099,0.008287,NA,0.030387,0.023481,0.946133,High income,US CENSUS DATA - Commuting,https://censusreporter.org/ ,81695.18707
M10187,C098,2019,YES,Des Moines,"Des Moines-West Des Moines, IA Metro Area",United States,North America,North America,Northern America,Iowa,IA,582353,-93.711332,41.5772115,0.021492,0.003793,NA,0.025284,0.003793,0.970923,High income,US CENSUS DATA - Commuting,https://censusreporter.org/ ,81695.18707
M10188,ID0154,2003,NO,Dessau-Rosslau,Dessau-Roßlau,Germany,Europe,Europe,Western Europe,,,78800,12.24,51.823,0.23,0.24,NA,0.47,0.07,0.46,High income,The European Platform on Mobility Management,https://epomm.eu/ ,52745.75571
M10188,ID0153,2008,YES,Dessau-Rosslau,Dessau-Roßlau,Germany,Europe,Europe,Western Europe,,,93810,12.24,51.823,0.2,0.22,NA,0.42,0.08,0.5,High income,The European Platform on Mobility Management,https://epomm.eu/ ,52745.75571
M10189,C099,2019,YES,Detroit,"Detroit-Warren-Dearborn, MI Metro Area",United States,North America,North America,Northern America,Michigan,MI,4243488,-83.0466403,42.3315509,0.014981,0.002497,NA,0.017478,0.011236,0.971286,High income,US CENSUS DATA - Commuting,https://censusreporter.org/ ,81695.18707
M10190,ID0155,2009,YES,Dhaka,Dhaka,Bangladesh,Asia,South Asia,Southern Asia,,,19578000,90.4059,23.7924,0.19,0.39,NA,0.58,0.29,0.13,Lower middle income,Dhaka mobility study,https://www.researchgate.net/publication/350471621_Transport_Mobility_in_Bangladesh-A_Case_Study_of_Dhaka_City,2529.080127
M10191,ID0156,2008,YES,Dippoldiswalde,Dippoldiswalde,Germany,Europe,Europe,Western Europe,,,10544,13.667,50.897,0.24,0.03,NA,0.27,0.08,0.65,High income,The European Platform on Mobility Management,https://epomm.eu/ ,52745.75571
M10192,ID0159,1999,NO,Donostia-San Sebastian,Donostia-San Sebastián,Spain,Europe,Europe,Southern Europe,,,183000,-1.982,43.314,NA,NA,NA,0.47253,0.19381,0.33367,High income,San Sebastián/Donostia: Calidad urbana: el espacio recuperado,http://habitat.aq.upm.es/bpes/mseu/bp-donostia.html,32676.98371
M10192,ID0158,2003,NO,Donostia-San Sebastian,Donostia-San Sebastián,Spain,Europe,Europe,Southern Europe,,,183000,-1.982,43.314,NA,NA,NA,0.48248,0.17317,0.34434,High income,San Sebastián/Donostia: Calidad urbana: el espacio recuperado,http://habitat.aq.upm.es/bpes/mseu/bp-donostia.html,32676.98371
M10192,ID0157,2007,YES,Donostia-San Sebastian,Donostia-San Sebastián,Spain,Europe,Europe,Southern Europe,,,183000,-1.982,43.314,NA,NA,NA,0.42543,0.25526,0.31932,High income,San Sebastián-Donostia. Calidad urbana: El espacio recuperado,http://habitat.aq.upm.es/bpes/mseu/bp-donostia.html,32676.98371
M10193,ID0162,2005,NO,Dortmund,Dortmund,Germany,Europe,Europe,Western Europe,,,585678,7.466,51.51,0.18,0.1,NA,0.28,0.22,0.5,High income,The European Platform on Mobility Management,https://epomm.eu/ ,52745.75571
M10193,ID0161,2013,NO,Dortmund,Dortmund,Germany,Europe,Europe,Western Europe,,,580000,7.466,51.51,0.215152,0.068687,NA,0.28384,0.24242,0.47374,High income,Haushaltsbefragung zum Mobilitätsverhalten der Dortmunder Bevölkerung 2013,https://www.dortmund.de/media/p/stadtplanungs_und_bauordnungsamt/stadtplanung_bauordnung_downloads/verkehrsplanung/Vorlage_Mobilitaetsverhalten.pdf,52745.75571
M10193,ID0160,2019,YES,Dortmund,Dortmund,Germany,Europe,Europe,Western Europe,,,580000,7.466,51.51,0.19,0.1,NA,0.29,0.22,0.49,High income,Urban Audit,https://ec.europa.eu/eurostat/web/gisco/geodata/reference-data/administrative-units-statistical-units/urban-audit,52745.75571
M10194,C100,2019,YES,Dothan,"Dothan, AL Metro Area",United States,North America,North America,Northern America,Alabama,AL,145158,-85.3904888,31.2232313,0.006329,0.001055,NA,0.007384,0.001055,0.991561,High income,US CENSUS DATA - Commuting,https://censusreporter.org/ ,81695.18707
M10195,ID0163,2011,YES,Douro,Douro,Portugal,Europe,Europe,Southern Europe,,,95672,-6.63,41.29,NA,NA,NA,0.19,0.15,0.66,High income,The European Platform on Mobility Management,https://epomm.eu/ ,27275.11155
M10196,C101,2019,YES,Dover,"Dover, DE Metro Area",United States,North America,North America,Northern America,Delaware,DE,165444,-75.5243682,39.158168,0.010905,0.001091,NA,0.011996,0.010905,0.977099,High income,US CENSUS DATA - Commuting,https://censusreporter.org/ ,81695.18707
M10197,ID0165,2001,NO,Drammen,Drammen,Norway,Europe,Europe,Northern Europe,,,55791,10.212,59.745,0.18,0.04,NA,0.22,0.11,0.67,High income,The European Platform on Mobility Management,https://epomm.eu/ ,87961.78061
M10197,ID0164,2005,YES,Drammen,Drammen,Norway,Europe,Europe,Northern Europe,,,55725,10.212,59.745,0.21,0.04,NA,0.25,0.1,0.65,High income,The European Platform on Mobility Management,https://epomm.eu/ ,87961.78061
M10198,ID0168,2001,NO,Dresden,Dresden,Germany,Europe,Europe,Western Europe,,,517052,13.741,51.06,0.242424,0.121212,NA,0.36364,0.20202,0.43434,High income,The European Platform on Mobility Management,https://epomm.eu/ ,52745.75571
M10198,ID0167,2008,NO,Dresden,Dresden,Germany,Europe,Europe,Western Europe,,,512546,13.741,51.06,0.22,0.16,NA,0.38,0.21,0.41,High income,The European Platform on Mobility Management,https://epomm.eu/ ,52745.75571
M10198,ID0166,2018,YES,Dresden,Dresden,Germany,Europe,Europe,Western Europe,,,512546,13.741,51.06,0.26,0.18,NA,0.44,0.2,0.36,High income,Urban Audit,https://ec.europa.eu/eurostat/web/gisco/geodata/reference-data/administrative-units-statistical-units/urban-audit,52745.75571
M10199,ID0171,2011,NO,Dublin,Dublin,Ireland,Europe,Europe,Northern Europe,,,1100000,-6.244,53.337,0.15,0.07,NA,0.22,0.21,0.57,High income,The European Platform on Mobility Management,https://epomm.eu/ ,103684.8808
M10199,ID0170,2016,NO,Dublin,Dublin,Ireland,Europe,Europe,Northern Europe,,,1100000,-6.244,53.337,0.145374,0.0837,NA,0.229075,0.236784,0.534141,High income,Urban Audit,https://ec.europa.eu/eurostat/web/gisco/geodata/reference-data/administrative-units-statistical-units/urban-audit,103684.8808
M10199,ID0169,2020,YES,Dublin,Dublin,Ireland,Europe,Europe,Northern Europe,,,1100000,-6.244,53.337,0.181818,0.070707,NA,0.252525,0.151515,0.59596,High income,Urban Audit,https://ec.europa.eu/eurostat/web/gisco/geodata/reference-data/administrative-units-statistical-units/urban-audit,103684.8808
M10200,C102,2019,YES,Dubuque,"Dubuque, IA Metro Area",United States,North America,North America,Northern America,Iowa,IA,93905,-90.6645718,42.5005583,NA,NA,NA,0.019495,0.008028,0.972477,High income,US CENSUS DATA - Commuting,https://censusreporter.org/ ,81695.18707
M10201,ID0173,2000,NO,Duisburg,Duisburg,Germany,Europe,Europe,Western Europe,,,514915,6.774,51.446,0.28,0.08,NA,0.36,0.11,0.53,High income,The European Platform on Mobility Management,https://epomm.eu/ ,52745.75571
M10201,ID0172,2005,YES,Duisburg,Duisburg,Germany,Europe,Europe,Western Europe,,,501564,6.774,51.446,0.2,0.13,NA,0.33,0.11,0.56,High income,The European Platform on Mobility Management,https://epomm.eu/ ,52745.75571
M10202,C103,2019,YES,Duluth,"Duluth, MN-WI Metro Area",United States,North America,North America,Northern America,Minnesota,MN,277198,-92.1004852,46.7866719,0.04388,0.003464,NA,0.047344,0.005774,0.946882,High income,US CENSUS DATA - Commuting,https://censusreporter.org/ ,81695.18707
M10203,ID0174,2001,YES,Dundee,Dundee,United Kingdom,Europe,Europe,Northern Europe,,,142070,-2.97,56.461,0.31,0.01,NA,0.32,0.2,0.48,High income,The European Platform on Mobility Management,https://epomm.eu/ ,48866.60396
M10204,ID0175,2003,YES,Dunkerque,Dunkerque,France,Europe,Europe,Western Europe,,,259000,2.379,51.04,0.25,0.02,NA,0.27,0.07,0.66,High income,The European Platform on Mobility Management,https://epomm.eu/ ,44460.81785
M10205,C104,2019,YES,Durham,"Durham-Chapel Hill, NC Metro Area",United States,North America,North America,Northern America,North Carolina,NC,519050,-79.0558445,35.9131996,0.027066,0.008547,NA,0.035613,0.018519,0.945869,High income,US CENSUS DATA - Commuting,https://censusreporter.org/ ,81695.18707
M10206,ID0180,2001,NO,Dusseldorf,Düsseldorf,Germany,Europe,Europe,Western Europe,,,570765,6.787,51.226,0.19,0.06,NA,0.25,0.22,0.53,High income,The European Platform on Mobility Management,https://epomm.eu/ ,52745.75571
M10206,ID0179,2008,NO,Dusseldorf,Düsseldorf,Germany,Europe,Europe,Western Europe,,,629005,6.787,51.226,0.27,0.11,NA,0.38,0.22,0.4,High income,The European Platform on Mobility Management,https://epomm.eu/ ,52745.75571
M10206,ID0178,2013,NO,Dusseldorf,Düsseldorf,Germany,Europe,Europe,Western Europe,,,588000,6.787,51.226,0.29,0.12,NA,0.41,0.19,0.4,High income,Mobilitätsbefragung: Verkehrswende nimmt Fahrt auf,https://www.duesseldorf.de/aktuelles/news/detailansicht/newsdetail/mobilitaetsbefragung-verkehrswende-nimmt-fahrt-auf-1.html,52745.75571
M10206,ID0177,2017,NO,Dusseldorf,Düsseldorf,Germany,Europe,Europe,Western Europe,,,588000,6.787,51.226,0.34,0.13,NA,0.47,0.18,0.35,High income,Urban Audit,https://ec.europa.eu/eurostat/web/gisco/geodata/reference-data/administrative-units-statistical-units/urban-audit,52745.75571
M10206,ID0176,2018,YES,Dusseldorf,Düsseldorf,Germany,Europe,Europe,Western Europe,,,588000,6.787,51.226,0.27,0.16,NA,0.43,0.21,0.36,High income,Mobilitätsbefragung: Verkehrswende nimmt Fahrt auf,https://www.duesseldorf.de/aktuelles/news/detailansicht/newsdetail/mobilitaetsbefragung-verkehrswende-nimmt-fahrt-auf-1.html,52745.75571
M10207,C105,2019,YES,East Stroudsburg,"East Stroudsburg, PA Metro Area",United States,North America,North America,Northern America,Pennsylvania,PA,166878,-75.172533,40.9970909,NA,NA,NA,0.011534,0.020761,0.967705,High income,US CENSUS DATA - Commuting,https://censusreporter.org/ ,81695.18707
M10208,C106,2019,YES,Eau Claire,"Eau Claire, WI Metro Area",United States,North America,North America,Northern America,Wisconsin,WI,161894,-91.4984941,44.811349,0.025346,0.00576,NA,0.031106,0.004608,0.964286,High income,US CENSUS DATA - Commuting,https://censusreporter.org/ ,81695.18707
M10209,ID0181,2008,YES,Eberswalde,Eberswalde,Germany,Europe,Europe,Western Europe,,,41396,13.796,52.846,0.27,0.13,NA,0.4,0.13,0.47,High income,The European Platform on Mobility Management,https://epomm.eu/ ,52745.75571
M10210,ID0183,2010,NO,Edinburgh,Edinburgh,United Kingdom,Europe,Europe,Northern Europe,,,471650,-3.18,55.95,0.193878,0.071429,NA,0.265306,0.306122,0.428571,High income,Urban Audit,https://ec.europa.eu/eurostat/web/gisco/geodata/reference-data/administrative-units-statistical-units/urban-audit,48866.60396
M10210,ID0182,2019,YES,Edinburgh,Edinburgh,United Kingdom,Europe,Europe,Northern Europe,,,471650,-3.18,55.95,0.19802,0.049505,NA,0.24752,0.44554,0.30693,High income,Edinburgh City Mobility Plan-2030,https://theedinburghreporter.co.uk/wp-content/uploads/2021/02/Edinburgh-City-Mobility-Plan-2030.pdf,48866.60396
M10211,ID0184,2016,YES,Edmonton,Edmonton,Canada,North America,North America,Northern America,,,1415000,-113.491241,53.5462055,0.037,0.01,NA,0.047,0.113,0.84,High income,Census Profile Canada,https://www12.statcan.gc.ca/census-recensement/2016/dp-pd/prof/index.cfm,53371.69743
M10212,ID0185,2008,YES,Eichwalde/Zeuthen,Eichwalde/Zeuthen,Germany,Europe,Europe,Western Europe,,,16417,13.623,52.378,0.16,0.18,NA,0.34,0.13,0.53,High income,The European Platform on Mobility Management,https://epomm.eu/ ,52745.75571
M10213,ID0188,2004,NO,Eindhoven,Eindhoven,Netherlands,Europe,Europe,Western Europe,,,220782,5.472,51.447,0.03,0.24,NA,0.27,0.08,0.65,High income,Urban Audit,https://ec.europa.eu/eurostat/web/gisco/geodata/reference-data/administrative-units-statistical-units/urban-audit,62536.73203
M10213,ID0187,2008,NO,Eindhoven,Eindhoven,Netherlands,Europe,Europe,Western Europe,,,210333,5.472,51.447,0.14,0.23,NA,0.37,0.07,0.56,High income,POLIS - Cities and regions for transport innovation,https://www.polisnetwork.eu/member/eindhoven/ ,62536.73203
M10213,ID0186,2014,YES,Eindhoven,Eindhoven,Netherlands,Europe,Europe,Western Europe,,,220782,5.472,51.447,0.13,0.4,NA,0.53,0.05,0.42,High income,The European Platform on Mobility Management,https://epomm.eu/ ,62536.73203
M10214,C107,2019,YES,El Centro,"El Centro, CA Metro Area",United States,North America,North America,Northern America,California,CA,173867,-115.5630514,32.792,NA,NA,NA,0.031351,0.011892,0.956757,High income,US CENSUS DATA - Commuting,https://censusreporter.org/ ,81695.18707
M10215,C108,2019,YES,El Paso,"El Paso, TX Metro Area",United States,North America,North America,Northern America,Texas,TX,815448,-106.329803,31.744282,0.017798,0.002225,NA,0.020022,0.010011,0.969967,High income,US CENSUS DATA - Commuting,https://censusreporter.org/ ,81695.18707
M10216,ID0189,2007,YES,Elbeuf,Elbeuf,France,Europe,Europe,Western Europe,,,55000,1.004,49.289,0.28,0.01,NA,0.29,0.05,0.66,High income,The European Platform on Mobility Management,https://epomm.eu/ ,44460.81785
M10217,C109,2019,YES,Elizabethtown-Fort Knox,"Elizabethtown-Fort Knox, KY Metro Area",United States,North America,North America,Northern America,Kentucky,KY,148712,-85.8794832,37.69282,0.024336,0.001106,NA,0.025442,0.002212,0.972345,High income,US CENSUS DATA - Commuting,https://censusreporter.org/ ,81695.18707
M10218,C110,2019,YES,Elkhart-Goshen,"Elkhart-Goshen, IN Metro Area",United States,North America,North America,Northern America,Indiana,IN,196502,-85.8344383,41.5822716,0.03312,0.014957,NA,0.048077,0.002137,0.949786,High income,US CENSUS DATA - Commuting,https://censusreporter.org/ ,81695.18707
M10219,ID0190,2014,YES,Elverum,Elverum,Norway,Europe,Europe,Northern Europe,,,20563,11.563,60.88,0.19,0.07,NA,0.26,0.04,0.7,High income,The European Platform on Mobility Management,https://epomm.eu/ ,87961.78061
M10220,ID0191,2007,YES,Emden,Emden,Germany,Europe,Europe,Western Europe,,,49751,7.206,53.366,0.08,0.3,NA,0.38,0.03,0.59,High income,The European Platform on Mobility Management,https://epomm.eu/ ,52745.75571
M10221,ID0192,2008,YES,Enschede,Enschede,Netherlands,Europe,Europe,Western Europe,,,154753,6.893,52.215,0.15,0.26,NA,0.41,0.04,0.55,High income,Global BRT data,https://brtdata.org/download/?l=location/europe/netherlands/enschede/&output=pdf,62536.73203
M10222,ID0193,2012,YES,Erd,Érd,Hungary,Europe,Europe,Eastern Europe,,,63000,18.921,47.378,0.15,0.03,NA,0.18,0.3,0.52,High income,The European Platform on Mobility Management,https://epomm.eu/ ,22147.20973
M10223,ID0198,1990,NO,Erfurt,Erfurt,Germany,Europe,Europe,Western Europe,,,204000,11.031,50.992,0.41,0.03,NA,0.44,0.2,0.36,High income,Erfurt.de – das offizielle Stadtportal,https://www.erfurt.de/ef/de/leben/verkehr/daten/128392.html,52745.75571
M10223,ID0197,1998,NO,Erfurt,Erfurt,Germany,Europe,Europe,Western Europe,,,204000,11.031,50.992,0.33,0.06,NA,0.39,0.21,0.4,High income,Erfurt.de – das offizielle Stadtportal,https://www.erfurt.de/ef/de/leben/verkehr/daten/128392.html,52745.75571
M10223,ID0196,2001,NO,Erfurt,Erfurt,Germany,Europe,Europe,Western Europe,,,203830,11.031,50.992,0.26,0.09,NA,0.35,0.21,0.44,High income,The European Platform on Mobility Management,https://epomm.eu/ ,52745.75571
M10223,ID0195,2008,NO,Erfurt,Erfurt,Germany,Europe,Europe,Western Europe,,,201368,11.031,50.992,0.29,0.08,NA,0.37,0.24,0.39,High income,The European Platform on Mobility Management,https://epomm.eu/ ,52745.75571
M10223,ID0194,2013,YES,Erfurt,Erfurt,Germany,Europe,Europe,Western Europe,,,201368,11.031,50.992,0.3,0.11,NA,0.41,0.17,0.42,High income,Erfurt.de – das offizielle Stadtportal,https://www.erfurt.de/ef/de/leben/verkehr/daten/128392.html,52745.75571
M10224,C112,2019,YES,Erie,"Erie, PA Metro Area",United States,North America,North America,Northern America,Pennsylvania,PA,277159,-80.085059,42.1292241,0.037628,0.002281,NA,0.039909,0.012543,0.947548,High income,US CENSUS DATA - Commuting,https://censusreporter.org/ ,81695.18707
M10225,ID0199,2005,YES,Erlangen,Erlangen,Germany,Europe,Europe,Western Europe,,,103197,10.997,49.583,0.09,0.16,NA,0.25,0.14,0.61,High income,The European Platform on Mobility Management,https://epomm.eu/ ,52745.75571
M10226,ID0200,2010,YES,Eskilstuna,Eskilstuna,Sweden,Europe,Europe,Northern Europe,,,97596,16.509,59.37,0.21,0.13,NA,0.34,0.08,0.58,High income,The European Platform on Mobility Management,https://epomm.eu/ ,56305.2502
M10227,ID0202,2008,NO,Espoo,Espoo,Finland,Europe,Europe,Northern Europe,,,260800,24.655,60.202,0.21,0.07,NA,0.28,0.2,0.52,High income,The European Platform on Mobility Management,https://epomm.eu/ ,53755.91174
M10227,ID0201,2012,YES,Espoo,Espoo,Finland,Europe,Europe,Northern Europe,,,260800,24.655,60.202,0.22,0.08,NA,0.3,0.2,0.5,High income,The European Platform on Mobility Management,https://epomm.eu/ ,53755.91174
M10228,ID0205,2001,NO,Essen,Essen,Germany,Europe,Europe,Western Europe,,,588168,7.01,51.449,0.26,0.03,NA,0.29,0.17,0.54,High income,The European Platform on Mobility Management,https://epomm.eu/ ,52745.75571
M10228,ID0204,2011,NO,Essen,Essen,Germany,Europe,Europe,Western Europe,,,583109,7.01,51.449,0.22,0.05,NA,0.27,0.19,0.54,High income,Haushaltsbefragung zum Mobilitätsverhalten in Essen 2019,https://media.essen.de/media/wwwessende/aemter/61/dokumente_7/verkehrsthemen/haushaltsbefragung/20190702_HHB_Essen_Kurzbericht.pdf,52745.75571
M10228,ID0203,2019,YES,Essen,Essen,Germany,Europe,Europe,Western Europe,,,583109,7.01,51.449,0.19,0.07,NA,0.26,0.19,0.55,High income,Haushaltsbefragung zum Mobilitätsverhalten in Essen 2019,https://media.essen.de/media/wwwessende/aemter/61/dokumente_7/verkehrsthemen/haushaltsbefragung/20190702_HHB_Essen_Kurzbericht.pdf,52745.75571
M10229,C113,2019,YES,Eugene,"Eugene, OR Metro Area",United States,North America,North America,Northern America,Oregon,OR,351609,-123.0867536,44.0520691,0.050847,0.015739,NA,0.066586,0.012107,0.921308,High income,US CENSUS DATA - Commuting,https://censusreporter.org/ ,81695.18707
M10230,C114,2019,YES,Evansville,"Evansville, IN-KY Metro Area",United States,North America,North America,Northern America,Indiana,IN,309577,-87.5710898,37.9715592,0.018785,0.003315,NA,0.022099,0.00442,0.973481,High income,US CENSUS DATA - Commuting,https://censusreporter.org/ ,81695.18707
M10231,C115,2019,YES,Fairbanks,"Fairbanks, AK Metro Area",United States,North America,North America,Northern America,Alaska,AK,97721,-147.7163888,64.8377778,0.052231,0.016322,NA,0.068553,0.006529,0.924918,High income,US CENSUS DATA - Commuting,https://censusreporter.org/ ,81695.18707
M10232,ID0206,2008,YES,Falkensee/Dallgow/Wustermark,Falkensee/Dallgow/Wustermark,Germany,Europe,Europe,Western Europe,,,55295,13.094,52.561,0.11,0.14,NA,0.25,0.15,0.6,High income,The European Platform on Mobility Management,https://epomm.eu/ ,52745.75571
M10233,C116,2019,YES,Fargo,"Fargo, ND-MN Metro Area",United States,North America,North America,Northern America,North Dakota,ND,215360,-96.7898034,46.8771863,0.028868,0.004619,NA,0.033487,0.005774,0.960739,High income,US CENSUS DATA - Commuting,https://censusreporter.org/ ,81695.18707
M10234,ID0207,2011,YES,Faro,Faro,Portugal,Europe,Europe,Southern Europe,,,64560,-7.936,37.019,0.257426,0.009901,NA,0.26733,0.07921,0.65347,High income,The European Platform on Mobility Management,https://epomm.eu/ ,27275.11155
M10235,C118,2019,YES,Fayetteville,"Fayetteville, NC Metro Area",United States,North America,North America,Northern America,North Carolina,NC,367623,-78.8783585,35.0526641,0.034896,0.001091,NA,0.035987,0.003272,0.960742,High income,US CENSUS DATA - Commuting,https://censusreporter.org/ ,81695.18707
M10236,C119,2019,YES,Fayetteville,"Fayetteville-Springdale-Rogers, AR-MO Metro Area",United States,North America,North America,Northern America,Arkansas,AR,477314,-94.186342,36.169179,0.015663,0.001205,NA,0.016867,0.00241,0.980723,High income,US CENSUS DATA - Commuting,https://censusreporter.org/ ,81695.18707
M10237,ID0208,2003,YES,Feldkirch,Feldkirch,Austria,Europe,Europe,Western Europe,,,31045,9.588,47.254,0.18,0.11,NA,0.29,0.14,0.57,High income,The European Platform on Mobility Management,https://epomm.eu/ ,56505.96828
M10238,ID0210,2008,NO,Ferrara,Ferrara,Italy,Europe,Europe,Southern Europe,,,135000,11.612,44.843,0.12,0.27,NA,0.39,0.05,0.56,High income,The European Platform on Mobility Management,https://epomm.eu/ ,38373.16605
M10238,ID0209,2011,YES,Ferrara,Ferrara,Italy,Europe,Europe,Southern Europe,,,130837,11.612,44.843,0.09,0.3,NA,0.39,0.05,0.56,High income,CODATU,https://www.codatu.org/wp-content/uploads/Ferrare_en.pdf ,38373.16605
M10239,C120,2019,YES,Flagstaff,"Flagstaff, AZ Metro Area",United States,North America,North America,Northern America,Arizona,AZ,134039,-111.651302,35.1982836,0.079478,0.013049,NA,0.092527,0.014235,0.893238,High income,US CENSUS DATA - Commuting,https://censusreporter.org/ ,81695.18707
M10240,C121,2019,YES,Flint,"Flint, MI Metro Area",United States,North America,North America,Northern America,Michigan,MI,413873,-83.6874562,43.0125274,NA,NA,NA,0.010147,0.010147,0.979707,High income,US CENSUS DATA - Commuting,https://censusreporter.org/ ,81695.18707
M10241,ID0212,2001,NO,Florence,Florence,Italy,Europe,Europe,Southern Europe,,,375984,11.254,43.777,0.158416,0.049505,NA,0.20792,0.16832,0.62376,High income,The European Platform on Mobility Management,https://epomm.eu/ ,38373.16605
M10241,C122,2019,YES,Florence,"Florence, SC Metro Area",United States,North America,North America,Northern America,South Carolina,SC,203615,-79.779496,34.184406,NA,NA,NA,0.014254,0.0001,0.985746,High income,US CENSUS DATA - Commuting,https://censusreporter.org/ ,81695.18707
M10242,ID0211,2001,YES,Florence,Florence,Italy,Europe,Europe,Southern Europe,,,379000,11.254,43.777,0.078431,0.039216,NA,0.117647,0.205882,0.676471,High income,Urban Audit,https://ec.europa.eu/eurostat/web/gisco/geodata/reference-data/administrative-units-statistical-units/urban-audit,38373.16605
M10243,C123,2019,YES,Florence,"Florence-Muscle Shoals, AL Metro Area",United States,North America,North America,Northern America,Alabama,AL,145831,-87.6428128,34.8149408,NA,NA,NA,0.009375,0.001042,0.989583,High income,US CENSUS DATA - Commuting,https://censusreporter.org/ ,81695.18707
M10244,ID0213,2015,YES,Florianopolis,Florianópolis,Brazil,South America,Latin America and Caribbean,South America,,,508826,-48.51,-27.6,NA,NA,NA,0.26,0.26,0.48,Upper middle income,Local Governments for Sustainability - ICLEI,https://iclei.org/ ,10043.62392
M10245,ID0214,2001,YES,Foggia,Foggia,Italy,Europe,Europe,Southern Europe,,,153154,15.546,41.459,0.316832,0.009901,NA,0.32673,0.11881,0.55446,High income,The European Platform on Mobility Management,https://epomm.eu/ ,38373.16605
M10246,C124,2019,YES,Fond du Lac,"Fond du Lac, WI Metro Area",United States,North America,North America,Northern America,Wisconsin,WI,100851,-88.4470508,43.7730448,NA,NA,NA,0.025843,0.001124,0.973034,High income,US CENSUS DATA - Commuting,https://censusreporter.org/ ,81695.18707
M10247,C125,2019,YES,Fort Collins,"Fort Collins, CO Metro Area",United States,North America,North America,Northern America,Colorado,CO,308196,-105.084423,40.5852602,0.035573,0.027668,NA,0.063241,0.007905,0.928854,High income,US CENSUS DATA - Commuting,https://censusreporter.org/ ,81695.18707
M10248,C126,2019,YES,Fort Smith,"Fort Smith, AR-OK Metro Area",United States,North America,North America,Northern America,Arkansas,AR,277342,-94.3985475,35.3859242,0.011616,0.003168,NA,0.014784,0.001056,0.984161,High income,US CENSUS DATA - Commuting,https://censusreporter.org/ ,81695.18707
M10249,C127,2019,YES,Fort Wayne,"Fort Wayne, IN Metro Area",United States,North America,North America,Northern America,Indiana,IN,416313,-85.1393513,41.079273,0.015453,0.004415,NA,0.019868,0.004415,0.975717,High income,US CENSUS DATA - Commuting,https://censusreporter.org/ ,81695.18707
M10250,ID0218,2001,NO,Frankfurt,Frankfurt,Germany,Europe,Europe,Western Europe,,,671927,8.681,50.111,0.294118,0.098039,NA,0.39216,0.22549,0.38235,High income,The European Platform on Mobility Management,https://epomm.eu/ ,52745.75571
M10250,ID0217,2003,NO,Frankfurt,Frankfurt,Germany,Europe,Europe,Western Europe,,,680000,8.681,50.111,0.3,0.09,NA,0.39,0.23,0.38,High income,The European Platform on Mobility Management,https://epomm.eu/ ,52745.75571
M10250,ID0216,2008,NO,Frankfurt,Frankfurt,Germany,Europe,Europe,Western Europe,,,680000,8.681,50.111,0.295238,0.104762,NA,0.4,0.19048,0.40952,High income,Quantifying dimensions of Transportation Diversity: A city-based comparative approach,"Pareekh, P., Mitra, S., Majumdar, B.B.: Quantifying dimensions of Transportation Diversity: A city-based comparative approach. Transportation Research Procedia (25), 3174–3187 (2017)",52745.75571
M10250,ID0215,2015,YES,Frankfurt,Frankfurt,Germany,Europe,Europe,Western Europe,,,680000,8.681,50.111,0.11,0.15,NA,0.26,0.3,0.44,High income,Urban Audit,https://ec.europa.eu/eurostat/web/gisco/geodata/reference-data/administrative-units-statistical-units/urban-audit,52745.75571
M10251,ID0219,2008,YES,Frankfurt am Main,Frankfurt am Main,Germany,Europe,Europe,Western Europe,,,670170,8.681,50.111,0.3,0.13,NA,0.43,0.23,0.34,High income,The European Platform on Mobility Management,https://epomm.eu/ ,52745.75571
M10252,ID0223,2001,NO,Fredrikstad,Fredrikstad,Norway,Europe,Europe,Northern Europe,,,68479,10.934,59.219,0.16,0.06,NA,0.22,0.07,0.71,High income,The European Platform on Mobility Management,https://epomm.eu/ ,87961.78061
M10252,ID0222,2005,NO,Fredrikstad,Fredrikstad,Norway,Europe,Europe,Northern Europe,,,63475,10.934,59.219,0.22,0.09,NA,0.31,0.03,0.66,High income,The European Platform on Mobility Management,https://epomm.eu/ ,87961.78061
M10252,ID0221,2013,NO,Fredrikstad,Fredrikstad,Norway,Europe,Europe,Northern Europe,,,66265,10.934,59.219,0.126,0.041,NA,0.167,0.064,0.769,High income,Urban structure and sustainable modes’,https://www.sciencedirect.com/science/article/pii/S1361920922000554,87961.78061
M10252,ID0220,2014,YES,Fredrikstad,Fredrikstad,Norway,Europe,Europe,Northern Europe,,,67591,10.934,59.219,0.17,0.05,NA,0.22,0.07,0.71,High income,The European Platform on Mobility Management,https://epomm.eu/ ,87961.78061
M10253,ID0225,2001,NO,Freiburg,Freiburg,Germany,Europe,Europe,Western Europe,,,221924,7.827,48.001,0.24,0.28,NA,0.52,0.18,0.3,High income,The European Platform on Mobility Management,https://epomm.eu/ ,52745.75571
M10253,ID0224,2016,YES,Freiburg,Freiburg,Germany,Europe,Europe,Western Europe,,,221924,7.827,48.001,0.29,0.34,NA,0.63,0.16,0.21,High income,Local Governments for Sustainability - ICLEI,https://iclei.org/ ,52745.75571
M10254,ID0226,2017,YES,Freiburg im Breisgau,Freiburg im Breisgau,Germany,Europe,Europe,Western Europe,,,226000,7.83,47.99,0.29,0.34,NA,0.63,0.16,0.21,High income,Urban Audit,https://ec.europa.eu/eurostat/web/gisco/geodata/reference-data/administrative-units-statistical-units/urban-audit,52745.75571
M10255,ID0227,2008,YES,Freital/Tharandt,Freital/Tharandt,Germany,Europe,Europe,Western Europe,,,44822,13.648,50.997,0.2,0.04,NA,0.24,0.09,0.67,High income,The European Platform on Mobility Management,https://epomm.eu/ ,52745.75571
M10256,C128,2019,YES,Fresno,"Fresno, CA Metro Area",United States,North America,North America,Northern America,California,CA,936048,-119.7725868,36.7468422,0.014656,0.006764,NA,0.021421,0.009019,0.96956,High income,US CENSUS DATA - Commuting,https://censusreporter.org/ ,81695.18707
M10257,ID0228,2007,YES,Funchal,Funchal,Portugal,Europe,Europe,Southern Europe,,,100000,-16.9086783,32.6496497,0.12,0.01,NA,0.13,0.34,0.53,High income,The European Platform on Mobility Management,https://epomm.eu/ ,27275.11155
M10258,ID0229,2011,YES,Fundao,Fundão,Portugal,Europe,Europe,Southern Europe,,,29213,-7.5,40.148,NA,NA,NA,0.24,0.12,0.64,High income,The European Platform on Mobility Management,https://epomm.eu/ ,27275.11155
M10259,ID0233,2001,NO,Furth,Fürth,Germany,Europe,Europe,Western Europe,,,114044,10.979,49.486,0.24,0.1,NA,0.34,0.18,0.48,High income,The European Platform on Mobility Management,https://epomm.eu/ ,52745.75571
M10259,ID0232,2008,NO,Furth,Fürth,Germany,Europe,Europe,Western Europe,,,118247,10.979,49.486,0.24,0.09,NA,0.33,0.17,0.5,High income,The European Platform on Mobility Management,https://epomm.eu/ ,52745.75571
M10259,ID0231,2016,NO,Furth,Fürth,Germany,Europe,Europe,Western Europe,,,115000,10.979,49.486,0.272727,0.111111,NA,0.38384,0.14141,0.47475,High income,Fürth - Modal split,https://www.agora-verkehrswende.de/veroeffentlichungen/staedte-in-bewegung/file/pdf/?tx_agorathemen_themenliste%5Babbildung%5D=3572&cHash=e9015ac3e27eca0fc0d56c3f7120b178,52745.75571
M10259,ID0230,2018,YES,Furth,Fürth,Germany,Europe,Europe,Western Europe,,,114044,10.979,49.486,0.23,0.1,NA,0.33,0.16,0.51,High income,Grundsatzbeschluss zur Förderung des Radverkehrs in der Stadt Fürth,https://stadtrat.fuerth.de/vo0050.asp?__kvonr=58986,52745.75571
M10260,C130,2019,YES,Gainesville,"Gainesville, GA Metro Area",United States,North America,North America,Northern America,Georgia,GA,182457,-83.824061,34.297446,NA,NA,NA,0.009101,0.005688,0.98521,High income,US CENSUS DATA - Commuting,https://censusreporter.org/ ,81695.18707
M10261,C131,2019,YES,Gainesville,"Gainesville, FL Metro Area",United States,North America,North America,Northern America,Florida,FL,265873,-82.3248262,29.6516344,0.019814,0.017483,NA,0.037296,0.022145,0.940559,High income,US CENSUS DATA - Commuting,https://censusreporter.org/ ,81695.18707
M10262,ID0234,2011,YES,Galway,Galway,Ireland,Europe,Europe,Northern Europe,,,76778,-9.059,53.269,0.16,0.06,NA,0.22,0.07,0.71,High income,The European Platform on Mobility Management,https://epomm.eu/ ,103684.8808
M10263,ID0236,2009,NO,Gdansk,Gdansk,Poland,Europe,Europe,Eastern Europe,,,456967,18.631,54.385,0.21,0.02,NA,0.23,0.38,0.39,High income,The European Platform on Mobility Management,https://epomm.eu/ ,22112.86157
M10263,ID0235,2016,YES,Gdansk,Gdansk,Poland,Europe,Europe,Eastern Europe,,,460000,18.631,54.385,0.208,0.059,NA,0.267,0.321,0.412,High income,Urban Audit,https://ec.europa.eu/eurostat/web/gisco/geodata/reference-data/administrative-units-statistical-units/urban-audit,22112.86157
M10264,ID0237,2000,YES,Genk,Genk,Belgium,Europe,Europe,Western Europe,,,65000,5.503,50.964,0.05,0.1,NA,0.15,0.15,0.7,High income,The European Platform on Mobility Management,https://epomm.eu/ ,53475.2935
M10265,ID0238,2001,YES,Genova,Genova,Italy,Europe,Europe,Southern Europe,,,614700,8.944,44.398,NA,NA,NA,0.20792,0.30693,0.48515,High income,The European Platform on Mobility Management,https://epomm.eu/ ,38373.16605
M10266,ID0240,2001,NO,Gera,Gera,Germany,Europe,Europe,Western Europe,,,100000,12.08,50.877,0.28,0.05,NA,0.33,0.2,0.47,High income,The European Platform on Mobility Management,https://epomm.eu/ ,52745.75571
M10266,ID0239,2008,YES,Gera,Gera,Germany,Europe,Europe,Western Europe,,,105689,12.08,50.877,0.29,0.04,NA,0.33,0.19,0.48,High income,The European Platform on Mobility Management,https://epomm.eu/ ,52745.75571
M10267,C132,2019,YES,Gettysburg,"Gettysburg, PA Metro Area",United States,North America,North America,Northern America,Pennsylvania,PA,100717,-77.2310955,39.8309293,0.038946,0.001145,NA,0.040092,0.0001,0.959908,High income,US CENSUS DATA - Commuting,https://censusreporter.org/ ,81695.18707
M10268,ID0244,2008,NO,Ghent,Ghent,Belgium,Europe,Europe,Western Europe,,,243366,3.721,51.051,0.13,0.15,NA,0.28,0.09,0.63,High income,The European Platform on Mobility Management,https://epomm.eu/ ,53475.2935
M10268,ID0243,2009,NO,Ghent,Ghent,Belgium,Europe,Europe,Western Europe,,,243000,3.721,51.051,0.18,0.14,NA,0.32,0.08,0.6,High income,The European Platform on Mobility Management,https://epomm.eu/ ,53475.2935
M10268,ID0242,2012,NO,Ghent,Ghent,Belgium,Europe,Europe,Western Europe,,,251000,3.721,51.051,0.24,0.2,NA,0.44,0.09,0.47,High income,The European Platform on Mobility Management,https://epomm.eu/ ,53475.2935
M10268,ID0241,2018,YES,Ghent,Ghent,Belgium,Europe,Europe,Western Europe,,,248000,3.721,51.051,0.128713,0.326733,NA,0.455446,0.148515,0.39604,High income,Urban Audit,https://ec.europa.eu/eurostat/web/gisco/geodata/reference-data/administrative-units-statistical-units/urban-audit,53475.2935
M10269,ID0245,2004,YES,Gijon,Gijón,Spain,Europe,Europe,Southern Europe,,,275000,-5.65,43.53,NA,NA,NA,0.24,0.17,0.59,High income,Urban Audit,https://ec.europa.eu/eurostat/web/gisco/geodata/reference-data/administrative-units-statistical-units/urban-audit,32676.98371
M10270,ID0246,2014,YES,Gjovik,Gjovik,Norway,Europe,Europe,Northern Europe,,,29668,10.691,60.792,0.2,0.02,NA,0.22,0.05,0.73,High income,The European Platform on Mobility Management,https://epomm.eu/ ,87961.78061
M10271,ID0247,2009,YES,Gladsaxe,Gladsaxe,Denmark,Europe,Europe,Northern Europe,,,63000,12.426,55.737,0.18,0.23,NA,0.41,0.09,0.5,High income,The European Platform on Mobility Management,https://epomm.eu/ ,67967.38187
M10272,C133,2019,YES,Glens Falls,"Glens Falls, NY Metro Area",United States,North America,North America,Northern America,New York,NY,127371,-73.6440058,43.3095164,NA,NA,NA,0.019144,0.007883,0.972973,High income,US CENSUS DATA - Commuting,https://censusreporter.org/ ,81695.18707
M10273,ID0250,2004,NO,Gothenburg,Gothenburg,Sweden,Europe,Europe,Northern Europe,,,485000,11.967,57.705,0.121212,0.141414,NA,0.262626,0.212121,0.525253,High income,Urban Audit,https://ec.europa.eu/eurostat/web/gisco/geodata/reference-data/administrative-units-statistical-units/urban-audit,56305.2502
M10273,ID0249,2006,NO,Gothenburg,Gothenburg,Sweden,Europe,Europe,Northern Europe,,,485000,11.967,57.705,0.15,0.09,NA,0.24,0.26,0.5,High income,The European Platform on Mobility Management,https://epomm.eu/ ,56305.2502
M10273,ID0248,2014,YES,Gothenburg,Gothenburg,Sweden,Europe,Europe,Northern Europe,,,485000,11.967,57.705,0.242424,0.070707,NA,0.31313,0.27273,0.41414,High income,The European Platform on Mobility Management,https://epomm.eu/ ,56305.2502
M10274,ID0253,2001,NO,Gottingen,Göttingen,Germany,Europe,Europe,Western Europe,,,130000,9.928,51.478,0.227723,0.247525,NA,0.47525,0.12871,0.39604,High income,The European Platform on Mobility Management,https://epomm.eu/ ,52745.75571
M10274,ID0252,2008,NO,Gottingen,Göttingen,Germany,Europe,Europe,Western Europe,,,129228,9.928,51.478,0.23,0.24,NA,0.47,0.12,0.41,High income,The European Platform on Mobility Management,https://epomm.eu/ ,52745.75571
M10274,ID0251,2009,YES,Gottingen,Göttingen,Germany,Europe,Europe,Western Europe,,,123594,9.928,51.478,0.25,0.27,NA,0.52,0.13,0.35,High income,The European Platform on Mobility Management,https://epomm.eu/ ,52745.75571
M10275,C135,2019,YES,Grand Forks,"Grand Forks, ND-MN Metro Area",United States,North America,North America,Northern America,North Dakota,ND,98529,-97.0328547,47.9252568,0.045307,0.003236,NA,0.048544,0.010787,0.940669,High income,US CENSUS DATA - Commuting,https://censusreporter.org/ ,81695.18707
M10276,C136,2019,YES,Grand Island,"Grand Island, NE Metro Area",United States,North America,North America,Northern America,Nebraska,NE,82293,-98.3420118,40.9263957,0.017932,0.008439,NA,0.026371,0.00211,0.971519,High income,US CENSUS DATA - Commuting,https://censusreporter.org/ ,81695.18707
M10277,C137,2019,YES,Grand Junction,"Grand Junction, CO Metro Area",United States,North America,North America,Northern America,Colorado,CO,145522,-108.5506486,39.0638705,0.015385,0.007101,NA,0.022485,0.015385,0.96213,High income,US CENSUS DATA - Commuting,https://censusreporter.org/ ,81695.18707
M10278,C138,2019,YES,Grand Rapids,"Grand Rapids-Wyoming, MI Metro Area",United States,North America,North America,Northern America,Michigan,MI,994009,-85.6819061,42.8852643,0.025522,0.0058,NA,0.031323,0.009281,0.959397,High income,US CENSUS DATA - Commuting,https://censusreporter.org/ ,81695.18707
M10279,ID0254,2005,YES,Granollers,Granollers,Spain,Europe,Europe,Southern Europe,,,59954,2.286,41.604,NA,NA,NA,0.72,0.04,0.24,High income,The European Platform on Mobility Management,https://epomm.eu/ ,32676.98371
M10280,ID0262,1982,NO,Graz,Graz,Austria,Europe,Europe,Western Europe,,,257328,15.442,47.062,0.31,0.083,NA,0.393,0.181,0.426,High income,Civitas,https://civitas.eu/sites/default/files/civitas_forum19_session_11_barbara_urban.pdf,56505.96828
M10280,ID0261,1988,NO,Graz,Graz,Austria,Europe,Europe,Western Europe,,,257328,15.442,47.062,0.253,0.117,NA,0.37,0.176,0.454,High income,Civitas,https://civitas.eu/sites/default/files/civitas_forum19_session_11_barbara_urban.pdf,56505.96828
M10280,ID0260,1991,NO,Graz,Graz,Austria,Europe,Europe,Western Europe,,,257328,15.442,47.062,0.236,0.125,NA,0.361,0.179,0.46,High income,Civitas,https://civitas.eu/sites/default/files/civitas_forum19_session_11_barbara_urban.pdf,56505.96828
M10280,ID0259,1998,NO,Graz,Graz,Austria,Europe,Europe,Western Europe,,,257328,15.442,47.062,0.213213,0.142142,NA,0.35536,0.18218,0.46246,High income,Civitas,https://civitas.eu/sites/default/files/civitas_forum19_session_11_barbara_urban.pdf,56505.96828
